Name,Type,Cuisine,Area,Address,Phone,Website,Opening Hours,OSM Rating,Latitude,Longitude,Google Maps,Google Rating,Google Reviews,Price Range,Special Notes,Source
121,,,"Restaurants, cafés, bakeries, tea stalls, street food",,,N/A,,N/A,,,N/A,,,,,
132,,,"Restaurants, cafés, bakeries, tea stalls, street food",,,N/A,,N/A,,,N/A,,,,,
13NO BRIDGE,Fast Food,regional,Uttara,"Gausul Azam Avenue, Sector 14",,,19:00-23:00,,23.8695342,90.392836,"https://www.google.com/maps?q=23.8695342,90.392836",N/A,N/A,N/A,N/A,OpenStreetMap
19 Restaurant,Restaurant,,Mohammadpur,,,,,,23.7644133,90.3589828,"https://www.google.com/maps?q=23.7644133,90.3589828",N/A,N/A,N/A,N/A,OpenStreetMap
1st Cup Coffee,Café / Coffee Shop,Turkish / Middle Eastern,Sector 3,"House#21, Road#3, Jashimuddin Rd",+880 1753-535304,N/A,10:00 AM – 1:00 AM,N/A,23.862,90.399,N/A,4,93,,"Coffee, brownie, kebab, vanilla latte, snacks",
1st Cup Coffee Business Brunch,Café / Coffee Shop,Café / Bakery / Dessert,Sector 3,"Jashimuddin, Uttara",+880 1685-283997,N/A,7:00 AM – 12:00 AM,N/A,23.862,90.399,N/A,4.2,116,,"Coffee, books, cappuccino, cozy, book-café vibe",
2 Point,Restaurant,,Mirpur,,,,,,23.8023796,90.3533032,"https://www.google.com/maps?q=23.8023796,90.3533032",N/A,N/A,N/A,N/A,OpenStreetMap
2 in Taste Kitchen,Restaurant,,Mirpur,,,,,,23.8101702,90.3665035,"https://www.google.com/maps?q=23.8101702,90.3665035",N/A,N/A,N/A,N/A,OpenStreetMap
2.0 Cafe,Cafe,,Hatirpool,Road 2,,,Mo-Su 11:00-22:00,,23.7383457,90.3780149,"https://www.google.com/maps?q=23.7383457,90.3780149",N/A,N/A,N/A,N/A,OpenStreetMap
20,,,Highly rated places,,,N/A,,N/A,,,N/A,,,,,
24k,Restaurant,,Malibagh,,,,,,23.751445,90.4239965,"https://www.google.com/maps?q=23.751445,90.4239965",N/A,N/A,N/A,N/A,OpenStreetMap
26,,,Top-rated,,,N/A,,N/A,,,N/A,,,,,
27 Number,Restaurant,,Dhanmondi,,,,,,23.7546269,90.3729269,"https://www.google.com/maps?q=23.7546269,90.3729269",N/A,N/A,N/A,N/A,OpenStreetMap
33,,,Top-rated places,,,N/A,,N/A,,,N/A,,,,,
35,,,Below average rated,,,N/A,,N/A,,,N/A,,,,,
4,,,Below average,,,N/A,,N/A,,,N/A,,,,,
52,,,Good-rated places,,,N/A,,N/A,,,N/A,,,,,
69,,,Good rated,,,N/A,,N/A,,,N/A,,,,,
7-Eleven,Restaurant,,Dhanmondi,,,,,,23.747742,90.3861432,"https://www.google.com/maps?q=23.747742,90.3861432",N/A,N/A,N/A,N/A,OpenStreetMap
7-Eleven,Fast Food,,Dhanmondi,Mirpur Road,,,Mo-Su 08:00-23:00,,23.7531609,90.3768718,"https://www.google.com/maps?q=23.7531609,90.3768718",N/A,N/A,N/A,N/A,OpenStreetMap
77,,,Good rated places,,,N/A,,N/A,,,N/A,,,,,
89,,,"Restaurants, cafés, bakeries, steakhouses, fine dining",,,N/A,,N/A,,,N/A,,,,,
90 Degree West Banani,Restaurant,,Banani,,,,,,23.7930391,90.403934,"https://www.google.com/maps?q=23.7930391,90.403934",N/A,N/A,N/A,N/A,OpenStreetMap
A F C restaurant,Restaurant,,Pallabi,,,,,,23.8207263,90.3650327,"https://www.google.com/maps?q=23.8207263,90.3650327",N/A,N/A,N/A,N/A,OpenStreetMap
A&W Restaurants,Fast Food,,Gulshan,,,,,,23.7820125,90.4160542,"https://www.google.com/maps?q=23.7820125,90.4160542",N/A,N/A,N/A,N/A,OpenStreetMap
A-show Kichu Khie Tea Stall,Cafe,,Uttara,,,,,,23.8956395,90.409075,"https://www.google.com/maps?q=23.8956395,90.409075",N/A,N/A,N/A,N/A,OpenStreetMap
"A.J.R. Parcel & Courier service Ltd., Choto katara",Food Court,,Old Dhaka,,,,,,23.7121659,90.3960636,"https://www.google.com/maps?q=23.7121659,90.3960636",N/A,N/A,N/A,N/A,OpenStreetMap
ALFRESCO,Restaurant,,Banani,,,,,,23.7909651,90.4041176,"https://www.google.com/maps?q=23.7909651,90.4041176",N/A,N/A,N/A,N/A,OpenStreetMap
AMERICAN Burger,Restaurant,,Gulshan,,,,,,23.790841,90.4052253,"https://www.google.com/maps?q=23.790841,90.4052253",N/A,N/A,N/A,N/A,OpenStreetMap
AN-NAFEE HOTEL AND RESTAURANT,Restaurant,,Mirpur,,,,,,23.808905,90.3670483,"https://www.google.com/maps?q=23.808905,90.3670483",N/A,N/A,N/A,N/A,OpenStreetMap
ANJUM kabab ghor,Restaurant,,Motijheel,"10/1, Toyenbee circular Road",+8801881445205,,08:00-23:00,,23.7281167,90.4222058,"https://www.google.com/maps?q=23.7281167,90.4222058",N/A,N/A,N/A,N/A,OpenStreetMap
ARAX,Restaurant,,Banani,,,,,,23.7911563,90.402943,"https://www.google.com/maps?q=23.7911563,90.402943",N/A,N/A,N/A,N/A,OpenStreetMap
ARROWHEAD GRILL,Restaurant,,Banani,,,,,,23.79071,90.4040687,"https://www.google.com/maps?q=23.79071,90.4040687",N/A,N/A,N/A,N/A,OpenStreetMap
Aawal Hotel,Restaurant,,Gulshan,korail,,,,,23.7834675,90.4121768,"https://www.google.com/maps?q=23.7834675,90.4121768",N/A,N/A,N/A,N/A,OpenStreetMap
Abacus,Restaurant,,Dhanmondi,,,,,,23.7466113,90.3707916,"https://www.google.com/maps?q=23.7466113,90.3707916",N/A,N/A,N/A,N/A,OpenStreetMap
Abacus Thai and Chinese Restaurant,Restaurant,,Gulshan,,,,,,23.7789216,90.4168486,"https://www.google.com/maps?q=23.7789216,90.4168486",N/A,N/A,N/A,N/A,OpenStreetMap
"Abbas Hotel, Dhaka",Restaurant,Bangla,Pallabi,,01327998030,,,,23.8356017,90.3768447,"https://www.google.com/maps?q=23.8356017,90.3768447",N/A,N/A,N/A,N/A,OpenStreetMap
Abdul Jalil Hotel,Restaurant,,Mirpur DOHS,Bawnia Bazar,,,,,23.8446843,90.3887756,"https://www.google.com/maps?q=23.8446843,90.3887756",N/A,N/A,N/A,N/A,OpenStreetMap
Abdullah Biriani House,Restaurant,,Jatrabari,,,,,,23.7103748,90.4240971,"https://www.google.com/maps?q=23.7103748,90.4240971",N/A,N/A,N/A,N/A,OpenStreetMap
"Abdullah Biriyani House Restaurant, Keraniganj, Dhaka",Restaurant,,Old Dhaka,,,,,,23.695225,90.3991509,"https://www.google.com/maps?q=23.695225,90.3991509",N/A,N/A,N/A,N/A,OpenStreetMap
Abdullah cafe,Cafe,,Postogola,,,,,,23.704074,90.4204127,"https://www.google.com/maps?q=23.704074,90.4204127",N/A,N/A,N/A,N/A,OpenStreetMap
"Abdur Rahim Biriyani House, Chinkutia Chowrasta, South Keraniganj, Dhaka",Restaurant,,Old Dhaka,,,,,,23.6950486,90.3986785,"https://www.google.com/maps?q=23.6950486,90.3986785",N/A,N/A,N/A,N/A,OpenStreetMap
Abesh Hotel,Restaurant,,Pallabi,,,,,,23.8200407,90.3652635,"https://www.google.com/maps?q=23.8200407,90.3652635",N/A,N/A,N/A,N/A,OpenStreetMap
Abesh Hotel & Biriyani House,Biriyani House,Bengali / Mughlai,Mirpur-2,"2 Rd No. 2, Dhaka 1216",+880 1835-151873,N/A,6:00 AM – 11:00 PM,N/A,23.804,90.3637,N/A,4.1,6510,৳৳ Mid-range,"Bengali, handi, peshwari beef, biriyani, kabab",
Abesh Hotel and Restaurant (Branch- 02),Restaurant,,Pallabi,"16/8, বেগম রোকেয়া সরণী",,,24/7,,23.8289027,90.3643932,"https://www.google.com/maps?q=23.8289027,90.3643932",N/A,N/A,N/A,N/A,OpenStreetMap
Abir Foods,Restaurant,,Pallabi,,,,,,23.8242211,90.3625078,"https://www.google.com/maps?q=23.8242211,90.3625078",N/A,N/A,N/A,N/A,OpenStreetMap
Abul Hotel,Restaurant,,Malibagh,ডিআইটি সড়ক,,,,,23.7546393,90.4153943,"https://www.google.com/maps?q=23.7546393,90.4153943",N/A,N/A,N/A,N/A,OpenStreetMap
Adda,Restaurant,burger;pizza;coffee_shop;chicken;kebab,Mirpur,বেগম রোকেয়া সরণী,,,,,23.7953398,90.373763,"https://www.google.com/maps?q=23.7953398,90.373763",N/A,N/A,N/A,N/A,OpenStreetMap
Adda Dot Com,Cafe,,Mirpur,Road 3,,,,,23.8101678,90.3685451,"https://www.google.com/maps?q=23.8101678,90.3685451",N/A,N/A,N/A,N/A,OpenStreetMap
Adda Restaurant and Part Center,Restaurant,,Dhanmondi,,,,,,23.7418942,90.3824631,"https://www.google.com/maps?q=23.7418942,90.3824631",N/A,N/A,N/A,N/A,OpenStreetMap
Adda Zone,Café / Coffee Shop,Café / Bakery / Dessert,Mirpur-1,"Rd No. 2, Dhaka",+880 1861-047344,N/A,12:00 PM – 11:00 PM,N/A,23.8009,90.3637,N/A,4.7,12,,"Tea, coffee, small bites, budget, roadside",
Adi Moron Chand Ghosh and Sons Mistanno Vandar,Restaurant,,Old Dhaka,"18, Nawabpur Rd",,,Mo-Su 08:00-22:00,,23.7149822,90.4115215,"https://www.google.com/maps?q=23.7149822,90.4115215",N/A,N/A,N/A,N/A,OpenStreetMap
Aftab Restaurant,Restaurant,,Old Dhaka,,,,,,23.7234387,90.4001501,"https://www.google.com/maps?q=23.7234387,90.4001501",N/A,N/A,N/A,N/A,OpenStreetMap
Aftab Restaurant,Restaurant,,Hazaribagh,Jigatala,,,Mo-Su 07:00-22:00,,23.7388176,90.3747562,"https://www.google.com/maps?q=23.7388176,90.3747562",N/A,N/A,N/A,N/A,OpenStreetMap
Aftab Restaurant and Kabab,Restaurant,,Other Dhaka,"Keari Crescent Tower, Jigatola Bus Stand",,,07:00-23:00,,23.7392659,90.3753332,"https://www.google.com/maps?q=23.7392659,90.3753332",N/A,N/A,N/A,N/A,OpenStreetMap
Agrani Restaurant অগ্রণী রেস্টুরেন্ট,Restaurant,,Unknown,,,,,,,,,N/A,N/A,N/A,N/A,OpenStreetMap
Agun Kabab,Restaurant,,Malibagh,,,,,,23.7525521,90.4186968,"https://www.google.com/maps?q=23.7525521,90.4186968",N/A,N/A,N/A,N/A,OpenStreetMap
Ahely,Restaurant,regional,Gulshan,,,,,,23.79277,90.4065875,"https://www.google.com/maps?q=23.79277,90.4065875",N/A,N/A,N/A,N/A,OpenStreetMap
Ahhare!!!,Restaurant,,Mirpur,,,,,,23.8087924,90.360655,"https://www.google.com/maps?q=23.8087924,90.360655",N/A,N/A,N/A,N/A,OpenStreetMap
Ahmed Burger Shop,Restaurant,"burger,Pizza,Sandwich",Old Dhaka,Municipal Rd,,,,,23.7084587,90.414738,"https://www.google.com/maps?q=23.7084587,90.414738",N/A,N/A,N/A,N/A,OpenStreetMap
Ahmed Food Plaza,Restaurant,,Mirpur,,,,,,23.8181494,90.3657662,"https://www.google.com/maps?q=23.8181494,90.3657662",N/A,N/A,N/A,N/A,OpenStreetMap
Ahmed's Biriyani,Biriyani House,Bengali / Mughlai,Sector 11,"House No. 42, Rd -15",+880 1825-013931,N/A,12:00 PM – 11:00 PM,N/A,23.855,90.404,N/A,4.7,9,,"Kacchi biriyani, tehari, small gem",
Ahnaf Chinese Food,Fast Food,,Shahbagh,,,,"Mo-Th,Sa-Su 10:00-22:00; Fr off",,23.7385929,90.3929803,"https://www.google.com/maps?q=23.7385929,90.3929803",N/A,N/A,N/A,N/A,OpenStreetMap
Ahsanullah Canteen,Cafe,,Old Dhaka,,,,,,23.7240795,90.3930258,"https://www.google.com/maps?q=23.7240795,90.3930258",N/A,N/A,N/A,N/A,OpenStreetMap
Airport Hotel & Restora,Restaurant,regional,Other Dhaka,"Hazi Camp Road, Bimanbandar Chattar",,,6:00-24:00,,23.8506176,90.4090743,"https://www.google.com/maps?q=23.8506176,90.4090743",N/A,N/A,N/A,N/A,OpenStreetMap
Ajo Idea Space,Restaurant,,Uttara,"House 14/A, Road 2 Sector 13",+88 01613-161616,https://m.facebook.com/AjoIdeaSpace/,11:00-23:00,,23.8704336,90.3921608,"https://www.google.com/maps?q=23.8704336,90.3921608",N/A,N/A,N/A,N/A,OpenStreetMap
Ajuya Juice & Food Corner,Food Court,,Bashabo,,,,,,23.7549369,90.4438038,"https://www.google.com/maps?q=23.7549369,90.4438038",N/A,N/A,N/A,N/A,OpenStreetMap
Ajwah,Fast Food,,Bashundhara,,,,,,23.812364,90.4249691,"https://www.google.com/maps?q=23.812364,90.4249691",N/A,N/A,N/A,N/A,OpenStreetMap
Akbar Hotel,Restaurant,,Demra,,,,,,23.7123811,90.450882,"https://www.google.com/maps?q=23.7123811,90.450882",N/A,N/A,N/A,N/A,OpenStreetMap
Al Aman Restaurant,Restaurant,,Mirpur,,,,,,23.8153292,90.3665529,"https://www.google.com/maps?q=23.8153292,90.3665529",N/A,N/A,N/A,N/A,OpenStreetMap
Al Amin Biryani Ghor,Restaurant,asian;biryani;bangladeshi,Bashabo,,+8801705500868,,,,23.7403709,90.4337281,"https://www.google.com/maps?q=23.7403709,90.4337281",N/A,N/A,N/A,N/A,OpenStreetMap
Al Amin Restaurant,Restaurant,,Mirpur,,,,,,23.7964932,90.3501898,"https://www.google.com/maps?q=23.7964932,90.3501898",N/A,N/A,N/A,N/A,OpenStreetMap
Al Arabian,Fast Food,,Malibagh,,,,,,23.7493339,90.4263109,"https://www.google.com/maps?q=23.7493339,90.4263109",N/A,N/A,N/A,N/A,OpenStreetMap
Al Baik Restaurant and Kabab Ghor,Restaurant,,Bashundhara,"Askona Purbapara, Dakshinkhan",+880183315803,,,,23.8511076,90.4200413,"https://www.google.com/maps?q=23.8511076,90.4200413",N/A,N/A,N/A,N/A,OpenStreetMap
Al Helal Restora,Restaurant,asian,Mohammadpur,,,,sunrise-sunset,1.0,23.7784082,90.3769701,"https://www.google.com/maps?q=23.7784082,90.3769701",N/A,N/A,N/A,N/A,OpenStreetMap
Al Kaderia Restaurant,Fast Food,,Malibagh,Shahid Baki Sarak,,,,,23.7521791,90.4169045,"https://www.google.com/maps?q=23.7521791,90.4169045",N/A,N/A,N/A,N/A,OpenStreetMap
Al Modina Hotel and Restaurant,Restaurant,,Gulshan,korail,,,,,23.7852388,90.4067588,"https://www.google.com/maps?q=23.7852388,90.4067588",N/A,N/A,N/A,N/A,OpenStreetMap
Al Muslim Hotel & Restaurant,Restaurant,,Old Dhaka,,,,,,23.7188342,90.4057541,"https://www.google.com/maps?q=23.7188342,90.4057541",N/A,N/A,N/A,N/A,OpenStreetMap
Al Sifat Restaurant,Restaurant,,Motijheel,Fakirapool Road,,,Mo-Su 07:00-22:00,,23.73268,90.4151866,"https://www.google.com/maps?q=23.73268,90.4151866",N/A,N/A,N/A,N/A,OpenStreetMap
Al-Amin Restora,Restaurant,regional,Other Dhaka,"Bimanbandar Gol Chattar, Bimanbandar",+08801777641431,,,,23.8505246,90.4090508,"https://www.google.com/maps?q=23.8505246,90.4090508",N/A,N/A,N/A,N/A,OpenStreetMap
Al-Amin Snacks,Fast Food,,Eskaton,,,,,,23.750346,90.4088101,"https://www.google.com/maps?q=23.750346,90.4088101",N/A,N/A,N/A,N/A,OpenStreetMap
Al-Habibi Corner,Fast Food,,Pallabi,,,,,,23.8200667,90.3652568,"https://www.google.com/maps?q=23.8200667,90.3652568",N/A,N/A,N/A,N/A,OpenStreetMap
Al-Hera,Restaurant,pizza;chicken;burger,Unknown,,,,,,,,,N/A,N/A,N/A,N/A,OpenStreetMap
"Al-Madina Birani House, Bashbari Lane, Chowrasta - Joydebpur Rd, Dhaka",Restaurant,,Old Dhaka,,,,,,23.7142135,90.4069501,"https://www.google.com/maps?q=23.7142135,90.4069501",N/A,N/A,N/A,N/A,OpenStreetMap
Al-Razzaque Restaurant,Restaurant,Bangladeshi,Old Dhaka,"29/1, North South Road, Bangshal, Dhaka",+8809566412,,Mo-Su 06:00-24:00; PH closed,,23.7182724,90.4086597,"https://www.google.com/maps?q=23.7182724,90.4086597",N/A,N/A,N/A,N/A,OpenStreetMap
Al-Robin Restaurant and Kabab,Restaurant,,Mohammadpur,,,,,,23.7834414,90.3749688,"https://www.google.com/maps?q=23.7834414,90.3749688",N/A,N/A,N/A,N/A,OpenStreetMap
"Al-Zafran Juice Bar ~ Nazira Bazar, Kazi Alauddin Road, near bangabazar, Dhaka",Fast Food,juice,Old Dhaka,,,,,,23.7225247,90.4056908,"https://www.google.com/maps?q=23.7225247,90.4056908",N/A,N/A,N/A,N/A,OpenStreetMap
Al-amar,Restaurant,lebanese,Dhanmondi,,,,,,23.7528686,90.3691937,"https://www.google.com/maps?q=23.7528686,90.3691937",N/A,N/A,N/A,N/A,OpenStreetMap
AlFresco,Restaurant,,Dhanmondi,,,,,,23.7530269,90.3691849,"https://www.google.com/maps?q=23.7530269,90.3691849",N/A,N/A,N/A,N/A,OpenStreetMap
Aladdin,Restaurant,,Mirpur,,,,,,23.8110405,90.36847,"https://www.google.com/maps?q=23.8110405,90.36847",N/A,N/A,N/A,N/A,OpenStreetMap
Aladdin Restaurant,Casual Dining,Bengali / Mughlai,Mirpur-10,"House 11, Road 05, Block A, Benaroshi Palli",+880 1958-230352,N/A,11:00 AM – 12:00 AM,N/A,23.8101,90.3637,N/A,3.6,100,,"Arabian-themed, handi beef, prawn tempura",
Alamin Sweets And Bakery আলামিন মিষ্টি ও বেকারি,Restaurant,,Uttara,,,,,,23.8935031,90.403568,"https://www.google.com/maps?q=23.8935031,90.403568",N/A,N/A,N/A,N/A,OpenStreetMap
Alauddin Sweetmeat,Restaurant,,Old Dhaka,1 No. Chawak Circular Road,,,,,23.7161861,90.3960086,"https://www.google.com/maps?q=23.7161861,90.3960086",N/A,N/A,N/A,N/A,OpenStreetMap
Alfresco Uttara,Fast Food,Western / Fast Food,Sector 11,Garib-E-Newaz Ave,+880 1977-738900,N/A,11:00 AM – 11:00 PM,N/A,23.855,90.404,N/A,4.1,1719,৳৳ Mid-range,"Pasta, lasagna, continental, cream of mushroom, long standing",
Alhamdulillah Kebab Ghar,Restaurant,,Old Dhaka,"42, Nawab Yousuf Sarak",,,Mo-Su 10:00-22:00,,23.7141794,90.4059863,"https://www.google.com/maps?q=23.7141794,90.4059863",N/A,N/A,N/A,N/A,OpenStreetMap
Ali Chap Kebab Ghar,Restaurant,,Mirpur,,,,,,23.8163237,90.3662258,"https://www.google.com/maps?q=23.8163237,90.3662258",N/A,N/A,N/A,N/A,OpenStreetMap
"Alif Hotel & Restaurant, Chunkutia Chowrasta, Keraniganj, Dhaka",Restaurant,,Old Dhaka,,,,,,23.6954663,90.3990889,"https://www.google.com/maps?q=23.6954663,90.3990889",N/A,N/A,N/A,N/A,OpenStreetMap
Alif Restaurant and Juice Bar,Fast Food,,Gulshan,Road 3 Niketon Block A,,,,,23.7757772,90.4119385,"https://www.google.com/maps?q=23.7757772,90.4119385",N/A,N/A,N/A,N/A,OpenStreetMap
Alkaderia Restaurant,Restaurant,regional;indian;chicken;asian;kebab,Rampura,"2/3, D. I. T. Road, Rampura",+8801721497089,,Mo-Su 06:00-23:00,,23.7592575,90.4183362,"https://www.google.com/maps?q=23.7592575,90.4183362",N/A,N/A,N/A,N/A,OpenStreetMap
All Baraka Hotel & Restaurant,Restaurant,,Mirpur,,,,"PH,Mo-Su 07:00-23:30",,23.8067879,90.3683627,"https://www.google.com/maps?q=23.8067879,90.3683627",N/A,N/A,N/A,N/A,OpenStreetMap
All-One,Restaurant,coffee_shop,Unknown,Azimpur Koborsthan Road,,,,,,,,N/A,N/A,N/A,N/A,OpenStreetMap
Allah AR Dan Hotel And Resturent,Restaurant,,Unknown,,,,,,,,,N/A,N/A,N/A,N/A,OpenStreetMap
Allah'r Daan Vai Vai Hotel,Restaurant,regional,Pallabi,"77, Main Road",,,08:00-10:00,,23.82361,90.3536428,"https://www.google.com/maps?q=23.82361,90.3536428",N/A,N/A,N/A,N/A,OpenStreetMap
Allah'r Dan Biriyani House,Restaurant,,Mirpur,,,,,,23.8078685,90.361326,"https://www.google.com/maps?q=23.8078685,90.361326",N/A,N/A,N/A,N/A,OpenStreetMap
Allahar Dan Biriyani House,Restaurant,,Jatrabari,,,,,,23.70122,90.4280503,"https://www.google.com/maps?q=23.70122,90.4280503",N/A,N/A,N/A,N/A,OpenStreetMap
Allahar Dan Restaurant,Restaurant,,Elephant Road,New Market Kacha Bazar,,,,,23.7339721,90.3832348,"https://www.google.com/maps?q=23.7339721,90.3832348",N/A,N/A,N/A,N/A,OpenStreetMap
Allahr Daan Kabab and Biriyani House,Fast Food,kebab,Mirpur,,,,,,23.7951862,90.3520864,"https://www.google.com/maps?q=23.7951862,90.3520864",N/A,N/A,N/A,N/A,OpenStreetMap
Allahr Dan Biryani,Restaurant,,Bashundhara,,,,,,23.8124189,90.4249991,"https://www.google.com/maps?q=23.8124189,90.4249991",N/A,N/A,N/A,N/A,OpenStreetMap
"Allahr Dan Biryani House, Hazi Khorshed Ali Sarder Road, East Jurain, Dhaka,",Restaurant,,Postogola,,,,,,23.6936253,90.4355575,"https://www.google.com/maps?q=23.6936253,90.4355575",N/A,N/A,N/A,N/A,OpenStreetMap
Allahr daan Hotel & Restaura,Restaurant,,Other Dhaka,"Ashkona, Dakshinkhan Road",+8801822146344,,,,23.8515152,90.4173382,"https://www.google.com/maps?q=23.8515152,90.4173382",N/A,N/A,N/A,N/A,OpenStreetMap
Allar Dan Restaurant,Restaurant,regional,Other Dhaka,Hazi Badsha Miah Road,,,Mo-Su 07:00-21:00,,23.6953967,90.475684,"https://www.google.com/maps?q=23.6953967,90.475684",N/A,N/A,N/A,N/A,OpenStreetMap
Almajlis Arabian Restaurant,Casual Dining,Turkish / Middle Eastern,Gulshan 2,"2nd Floor, Faisal Tower, 27 North C/A",+880 1830-000233,N/A,2:00 PM – 4:30 AM,N/A,,,N/A,4.6,411,,"Authentic lamb mandi, kebab, Arabic music, Moroccan feel, late night",
Alomer Vater Hotel,Restaurant,,Mirpur,,,,,,23.817427,90.3561124,"https://www.google.com/maps?q=23.817427,90.3561124",N/A,N/A,N/A,N/A,OpenStreetMap
Alu-Bhorta-Daal-Bhat,Restaurant,,Mohammadpur,,,,,,23.7855512,90.3673713,"https://www.google.com/maps?q=23.7855512,90.3673713",N/A,N/A,N/A,N/A,OpenStreetMap
Ambar Biryani Pot,Restaurant,,Old Dhaka,R M Das Lane,,,Mo-Su 09:00-23:00,,23.7102093,90.4178486,"https://www.google.com/maps?q=23.7102093,90.4178486",N/A,N/A,N/A,N/A,OpenStreetMap
Ambrasia,Restaurant,,Other Dhaka,,,,,,23.7419658,90.4101925,"https://www.google.com/maps?q=23.7419658,90.4101925",N/A,N/A,N/A,N/A,OpenStreetMap
Amej,Fast Food,juice,Mirpur,,,,,,23.7971578,90.364968,"https://www.google.com/maps?q=23.7971578,90.364968",N/A,N/A,N/A,N/A,OpenStreetMap
American Burger,Restaurant,,Hazaribagh,Satmasjid Road,,,,,23.7405519,90.3749874,"https://www.google.com/maps?q=23.7405519,90.3749874",N/A,N/A,N/A,N/A,OpenStreetMap
American Burger Gulshan 2,Fast Food,Western / Continental,Gulshan 2,"Metropolitan Shopping Plaza Shop#21-22, Road#46",+880 1749-221814,N/A,10:00 AM – 11:30 PM,N/A,,,N/A,4.3,990,,"Quality beef patty, freshness focus, chicken sandwich, local favourite",
Amigos' Pizza & Restaurant,Restaurant,,Old Dhaka,"90, Abul Hasnat Rd",,,,,23.7183473,90.4004803,"https://www.google.com/maps?q=23.7183473,90.4004803",N/A,N/A,N/A,N/A,OpenStreetMap
Amish & Fuddy Buddy,Restaurant,,Mohammadpur,,,,,,23.7626299,90.3619876,"https://www.google.com/maps?q=23.7626299,90.3619876",N/A,N/A,N/A,N/A,OpenStreetMap
Amish Proteen,Restaurant,,Mohammadpur,,,,,,23.7626011,90.3618588,"https://www.google.com/maps?q=23.7626011,90.3618588",N/A,N/A,N/A,N/A,OpenStreetMap
Amontron,Cafe,,Mirpur,,,,,,23.8097534,90.3639127,"https://www.google.com/maps?q=23.8097534,90.3639127",N/A,N/A,N/A,N/A,OpenStreetMap
Amontron Hotel And Restaurant,Restaurant,,Banani,,,,,,23.7931018,90.4005801,"https://www.google.com/maps?q=23.7931018,90.4005801",N/A,N/A,N/A,N/A,OpenStreetMap
Amrit Restaurant,Restaurant,,Banani,,,,,,23.7933496,90.4044557,"https://www.google.com/maps?q=23.7933496,90.4044557",N/A,N/A,N/A,N/A,OpenStreetMap
Anand Restaurant,Restaurant,,Other Dhaka,,,,,,23.7761095,90.3932682,"https://www.google.com/maps?q=23.7761095,90.3932682",N/A,N/A,N/A,N/A,OpenStreetMap
Ananda Bhaban Community Center,Restaurant,,Unknown,"55, Purana Paltan Line",+8801786064031,,,,,,,N/A,N/A,N/A,N/A,OpenStreetMap
Ananda Confectionery,Restaurant,,Old Dhaka,Abul Hasnat Road,,,,,23.7184295,90.4001135,"https://www.google.com/maps?q=23.7184295,90.4001135",N/A,N/A,N/A,N/A,OpenStreetMap
Ananya Restaurant,Restaurant,,Dhanmondi,,,,,,23.7499729,90.386884,"https://www.google.com/maps?q=23.7499729,90.386884",N/A,N/A,N/A,N/A,OpenStreetMap
Ancholik khana,Restaurant,bangladeshi,Rayer Bazar,,,,,,23.749558,90.3654854,"https://www.google.com/maps?q=23.749558,90.3654854",N/A,N/A,N/A,N/A,OpenStreetMap
"Anisha food zone/ CP Five Star - Anisa, Restaurant, New Doyaganj Road, Shamibagh, Dhaka",Restaurant,,Jatrabari,,,,,,23.7117968,90.4233964,"https://www.google.com/maps?q=23.7117968,90.4233964",N/A,N/A,N/A,N/A,OpenStreetMap
Anjum Kabab and Restaurant,Casual Dining,Turkish / Middle Eastern,Sector 13,55 Shah Makhdum Ave,,N/A,Open 24 hours,N/A,23.855,90.404,N/A,3.9,424,৳৳ Mid-range,"Grill, kabab, paratha, milk tea, 24/7",
Anondo Snacks,Fast Food,regional,Elephant Road,নিউমার্কেট ফুটওভার ব্রিজ,,,10:00+,,23.7342462,90.3843452,"https://www.google.com/maps?q=23.7342462,90.3843452",N/A,N/A,N/A,N/A,OpenStreetMap
Apon Coffee Shop,Cafe,coffee_shop,Malibagh,Shahid Baki Sarak,,,,,23.7522232,90.421561,"https://www.google.com/maps?q=23.7522232,90.421561",N/A,N/A,N/A,N/A,OpenStreetMap
Appetina,Fast Food,,Mohammadpur,,,,,,23.7629061,90.3615014,"https://www.google.com/maps?q=23.7629061,90.3615014",N/A,N/A,N/A,N/A,OpenStreetMap
Aqua Deck,Restaurant,,Shahbagh,,,,,,23.7409721,90.3971906,"https://www.google.com/maps?q=23.7409721,90.3971906",N/A,N/A,N/A,N/A,OpenStreetMap
Aqua Java,Restaurant,,Pallabi,,,,,,23.8366061,90.3767214,"https://www.google.com/maps?q=23.8366061,90.3767214",N/A,N/A,N/A,N/A,OpenStreetMap
Arabian,Restaurant,,Mirpur,,,,,,23.8184209,90.3657286,"https://www.google.com/maps?q=23.8184209,90.3657286",N/A,N/A,N/A,N/A,OpenStreetMap
Arabian Fast Food,Fast Food,,Dhanmondi,,,,,,23.7423149,90.3823549,"https://www.google.com/maps?q=23.7423149,90.3823549",N/A,N/A,N/A,N/A,OpenStreetMap
Arabian Fast Food,Fast Food,,Hatirpool,"35, ধানমণ্ডি ২",,,,,23.7383154,90.3780124,"https://www.google.com/maps?q=23.7383154,90.3780124",N/A,N/A,N/A,N/A,OpenStreetMap
Arabian Khabsa Restaurant and Party Center,Restaurant,,Other Dhaka,Beside Jigatola Bus Stand,01977691994,,13:00-23:00,,23.7395734,90.375673,"https://www.google.com/maps?q=23.7395734,90.375673",N/A,N/A,N/A,N/A,OpenStreetMap
Arabian Nights,Restaurant,,Mohammadpur,,,,,,23.7632092,90.3613365,"https://www.google.com/maps?q=23.7632092,90.3613365",N/A,N/A,N/A,N/A,OpenStreetMap
Arabika Coffee,Café / Coffee Shop,Café / Bakery / Dessert,Gulshan 2,176 Gulshan North Ave,+880 1313-487398,N/A,7:30 AM – 3:00 AM,N/A,,,N/A,4.4,1266,৳৳ Mid-range,"Specialty coffee, americano, mocha, embassy area, late night",
Arafat Hotel,Restaurant,,Mirpur,,,,,,23.8090582,90.3638153,"https://www.google.com/maps?q=23.8090582,90.3638153",N/A,N/A,N/A,N/A,OpenStreetMap
Arisha Hotel & Restaurant,Restaurant,,Dhanmondi,,,,,,23.7504752,90.3871389,"https://www.google.com/maps?q=23.7504752,90.3871389",N/A,N/A,N/A,N/A,OpenStreetMap
Ariston,Fast Food,,Gulshan,,+8801920784483,,Sa-Th 10:00-21:30,,23.7808319,90.4069322,"https://www.google.com/maps?q=23.7808319,90.4069322",N/A,N/A,N/A,N/A,OpenStreetMap
Army Food Market,Restaurant,asian;barbecue;bubble_tea;burger;chicken;chinese;coffee_shop,Mirpur DOHS,ECB Chattar,"+8801685070090, 01925-257496",,Mo-Su 11:00-23:30,,23.8229429,90.3935543,"https://www.google.com/maps?q=23.8229429,90.3935543",N/A,N/A,N/A,N/A,OpenStreetMap
Aroma Restaurant,Restaurant,,Other Dhaka,,,,,,23.854922,90.4042205,"https://www.google.com/maps?q=23.854922,90.4042205",N/A,N/A,N/A,N/A,OpenStreetMap
Arsalan,Restaurant,,Bashundhara,,,,,,23.8129685,90.4250453,"https://www.google.com/maps?q=23.8129685,90.4250453",N/A,N/A,N/A,N/A,OpenStreetMap
Ash Cafe & Bistro,Café / Coffee Shop,Café / Bakery / Dessert,Mirpur-12,"Level 6, Safura Tower, House 45, Rd No. 7",+880 1626-262409,N/A,11:00 AM – 11:30 PM,N/A,23.8272,90.3637,N/A,3.3,17,,"Café bistro, evening dining, lounge",
Ashik Tea Point,Café / Coffee Shop,Café / Bakery / Dessert,Mirpur-1,"Rainkhola, Dhaka 1216",+880 1581-611677,N/A,3:04 PM – 11:04 PM,N/A,23.8009,90.3637,N/A,4.5,102,,"Malai tea, best in area, small stall, budget",
Ashrafi Ka Dhaba,Restaurant,,Mohammadpur,,,,,,23.7613117,90.3608604,"https://www.google.com/maps?q=23.7613117,90.3608604",N/A,N/A,N/A,N/A,OpenStreetMap
Ashta Banjan,Casual Dining,Bengali / Mughlai,Sector 11,Sonargaon Janapath Rd,+880 1601-493919,N/A,1:00 PM – 11:00 PM,N/A,23.855,90.404,N/A,3.2,131,,"Bengali, khichuri, kala bhuna, bharta",
Asia Garden Restore,Restaurant,,Motijheel,Outer Circular Road,,,Mo-Su 07:00-12:00,,23.7348492,90.4172704,"https://www.google.com/maps?q=23.7348492,90.4172704",N/A,N/A,N/A,N/A,OpenStreetMap
Asian Kitchen,Restaurant,,Rampura,,,,,,23.7731835,90.4255436,"https://www.google.com/maps?q=23.7731835,90.4255436",N/A,N/A,N/A,N/A,OpenStreetMap
Assurance Farm Cafe / Hazi Nanna Biriyani,Biriyani House,Bengali / Mughlai,Mirpur-10,"Plot#37, Ave#01, Section#10, Block#B, Benaroshi Polli",+880 1313-043554,N/A,8:00 AM – 11:00 PM,N/A,23.8101,90.3637,N/A,4,3742,৳৳ Mid-range,"Kacchi biriyani, farm fresh, Old Dhaka style",
Atithi fast food,Fast Food,,Dhanmondi,,,,,,23.7474012,90.38028,"https://www.google.com/maps?q=23.7474012,90.38028",N/A,N/A,N/A,N/A,OpenStreetMap
Atrium Restaurant,Restaurant,thai;chinese;asian,Cantonment,"50-52,, Baridhara J Block",,,12:00-23:00,,23.8024976,90.4228489,"https://www.google.com/maps?q=23.8024976,90.4228489",N/A,N/A,N/A,N/A,OpenStreetMap
Att-Tin,Fast Food,,Mirpur,Road 23,,,,,23.8170464,90.3538063,"https://www.google.com/maps?q=23.8170464,90.3538063",N/A,N/A,N/A,N/A,OpenStreetMap
Autograph Live music Cafe,Restaurant,,Rampura,,,,,,23.7616058,90.4303565,"https://www.google.com/maps?q=23.7616058,90.4303565",N/A,N/A,N/A,N/A,OpenStreetMap
Auwal Biryani House,Restaurant,,Bashabo,,,,,,23.7403514,90.4325314,"https://www.google.com/maps?q=23.7403514,90.4325314",N/A,N/A,N/A,N/A,OpenStreetMap
Avano - Asian Fusion Restaurant,Restaurant,asian;korean;japanese;chinese,Pallabi,"House 45, Lift 8, Floor 9, Safura Tower, Rd No 7, Mirpur 12",+880 1898-876666,https://www.avanobd.com/,Mo-Su 12:00-23:30,,23.8272376,90.3645148,"https://www.google.com/maps?q=23.8272376,90.3645148",N/A,N/A,N/A,N/A,OpenStreetMap
AyanDine & Food Park,Fast Food,,Aftabnagar,,,,,,23.7554136,90.4438397,"https://www.google.com/maps?q=23.7554136,90.4438397",N/A,N/A,N/A,N/A,OpenStreetMap
Azizjeya mistanno bhandar,Restaurant,,Unknown,,,,,,,,,N/A,N/A,N/A,N/A,OpenStreetMap
B M Coffee House & Fast Food বি এম কফি হাউজ এন্ড ফাস্টফুড,Cafe,,Uttara,,,,,,23.8936149,90.4039415,"https://www.google.com/maps?q=23.8936149,90.4039415",N/A,N/A,N/A,N/A,OpenStreetMap
BBQ Bangladesh,Restaurant,pizza;italian;chicken;mexican;korean,Cantonment,,,,,,23.8002004,90.41181,"https://www.google.com/maps?q=23.8002004,90.41181",N/A,N/A,N/A,N/A,OpenStreetMap
BD Naga Fuchka,Restaurant,,Bashabo,,,,,,23.7432316,90.4341906,"https://www.google.com/maps?q=23.7432316,90.4341906",N/A,N/A,N/A,N/A,OpenStreetMap
BD'S Khandani Caffeine,Restaurant,,Mohammadpur,,,,,,23.7630165,90.3627688,"https://www.google.com/maps?q=23.7630165,90.3627688",N/A,N/A,N/A,N/A,OpenStreetMap
BELLA ITALIA,Restaurant,italian,Gulshan,,,,,,23.7861371,90.4167905,"https://www.google.com/maps?q=23.7861371,90.4167905",N/A,N/A,N/A,N/A,OpenStreetMap
BFC,Restaurant,,Other Dhaka,"101, Kakrail Road",+8801720087690,,10:00-23:00,,23.7385155,90.4090764,"https://www.google.com/maps?q=23.7385155,90.4090764",N/A,N/A,N/A,N/A,OpenStreetMap
BFC,Fast Food,,Other Dhaka,Naya Paltan Box Culvert Road,,,Mo-Su 09:00-23:00,,23.7323257,90.4134393,"https://www.google.com/maps?q=23.7323257,90.4134393",N/A,N/A,N/A,N/A,OpenStreetMap
BFC,Fast Food,fast_food,Other Dhaka,,,,,,23.7419835,90.4117582,"https://www.google.com/maps?q=23.7419835,90.4117582",N/A,N/A,N/A,N/A,OpenStreetMap
BFC (Best Fried Chicken),Fast Food,Western / Fast Food,Mirpur-12,"Safura Tower 1st Floor, Mirpur-12",+880 1886-831743,N/A,10:00 AM – 10:30 PM,N/A,23.8272,90.3637,N/A,3.9,374,৳৳ Mid-range,"Fried chicken, burger, local chain",
BUET Cafe,Cafe,,Lalbagh,,,,,,23.7266583,90.391049,"https://www.google.com/maps?q=23.7266583,90.391049",N/A,N/A,N/A,N/A,OpenStreetMap
Babor Ali Biriani House,Food Court,,Jatrabari,,,,,,23.7178277,90.425397,"https://www.google.com/maps?q=23.7178277,90.425397",N/A,N/A,N/A,N/A,OpenStreetMap
Baburchi,Restaurant,indian,Hazaribagh,,,,,,23.7402637,90.3747148,"https://www.google.com/maps?q=23.7402637,90.3747148",N/A,N/A,N/A,N/A,OpenStreetMap
Baburchi Bari,Restaurant,,Bashundhara,,,,Mo-Su 07:00-23:00,,23.8162498,90.424683,"https://www.google.com/maps?q=23.8162498,90.424683",N/A,N/A,N/A,N/A,OpenStreetMap
Baburchi Restaurant,Restaurant,,Malibagh,,,,,,23.7545408,90.4157254,"https://www.google.com/maps?q=23.7545408,90.4157254",N/A,N/A,N/A,N/A,OpenStreetMap
Bachelor Point,Cafe,,Hazaribagh,,,,,,23.7418435,90.3744178,"https://www.google.com/maps?q=23.7418435,90.3744178",N/A,N/A,N/A,N/A,OpenStreetMap
Badda Darbar Restaurant,Restaurant,"Bangladeshi, Indiann",Gulshan,"La 62/2, Middle Badda",,,,,23.7775957,90.4259197,"https://www.google.com/maps?q=23.7775957,90.4259197",N/A,N/A,N/A,N/A,OpenStreetMap
Bagdad Biriyani,Restaurant,,Old Dhaka,Abul Hasnat Road,,,,,23.7181005,90.4006969,"https://www.google.com/maps?q=23.7181005,90.4006969",N/A,N/A,N/A,N/A,OpenStreetMap
Bagicha Restaurant,Restaurant,asian,Other Dhaka,,,,,,23.7333329,90.406562,"https://www.google.com/maps?q=23.7333329,90.406562",N/A,N/A,N/A,N/A,OpenStreetMap
Bailey BBQ,Fast Food,,Other Dhaka,,,,,,23.7418535,90.4117503,"https://www.google.com/maps?q=23.7418535,90.4117503",N/A,N/A,N/A,N/A,OpenStreetMap
Bailey pitha,Restaurant,,Other Dhaka,"15, natok sharani",+8801750950564,,10:00-22:00,,23.7419136,90.4095847,"https://www.google.com/maps?q=23.7419136,90.4095847",N/A,N/A,N/A,N/A,OpenStreetMap
Baily Hut,Restaurant,,Other Dhaka,,,,,,23.7417184,90.4107104,"https://www.google.com/maps?q=23.7417184,90.4107104",N/A,N/A,N/A,N/A,OpenStreetMap
Baily Pitha Ghor,Fast Food,,Bashundhara,,,,,,23.8125033,90.4253392,"https://www.google.com/maps?q=23.8125033,90.4253392",N/A,N/A,N/A,N/A,OpenStreetMap
Bake Elegance,Fast Food,,Other Dhaka,Bawnia Main Road,,,,,23.845774,90.387884,"https://www.google.com/maps?q=23.845774,90.387884",N/A,N/A,N/A,N/A,OpenStreetMap
Bakeman,Restaurant,,Uttara,"05, Mymenshingh Road, Sector 03, Uttara C/A",+8801730313882,,,,23.8614708,90.399773,"https://www.google.com/maps?q=23.8614708,90.399773",N/A,N/A,N/A,N/A,OpenStreetMap
Baker Fast Food & Pastry,Restaurant,,Other Dhaka,"2, natok Sharani",+88029335950,,,,23.7420464,90.410478,"https://www.google.com/maps?q=23.7420464,90.410478",N/A,N/A,N/A,N/A,OpenStreetMap
Baker's Bay,Restaurant,,Other Dhaka,,,,,,23.7841264,90.3436243,"https://www.google.com/maps?q=23.7841264,90.3436243",N/A,N/A,N/A,N/A,OpenStreetMap
Bambo Shoot,Restaurant,,Uttara,"11, Dhaka - Mymansing Highway",+8801751623776,,,,23.8620858,90.3995842,"https://www.google.com/maps?q=23.8620858,90.3995842",N/A,N/A,N/A,N/A,OpenStreetMap
Banaful,Cafe,,Malibagh,,,,,,23.7493057,90.4263241,"https://www.google.com/maps?q=23.7493057,90.4263241",N/A,N/A,N/A,N/A,OpenStreetMap
Banaful sweets,Restaurant,,Mohammadpur,,,,,,23.7668993,90.3587584,"https://www.google.com/maps?q=23.7668993,90.3587584",N/A,N/A,N/A,N/A,OpenStreetMap
Banalata,Fast Food,,Kafrul,,,,,,23.7911942,90.3878115,"https://www.google.com/maps?q=23.7911942,90.3878115",N/A,N/A,N/A,N/A,OpenStreetMap
Bangaliana Bhoj,Restaurant,,Bashundhara,,,,,,23.8123619,90.4240087,"https://www.google.com/maps?q=23.8123619,90.4240087",N/A,N/A,N/A,N/A,OpenStreetMap
Bangaliyana Voj1,Restaurant,,Mirpur,,,,,,23.8064724,90.3664482,"https://www.google.com/maps?q=23.8064724,90.3664482",N/A,N/A,N/A,N/A,OpenStreetMap
Bangla,Restaurant,,Gulshan,"Ga-96, Bir Uttam Rafiqul Islam Avenue",,,,,23.7807893,90.4255455,"https://www.google.com/maps?q=23.7807893,90.4255455",N/A,N/A,N/A,N/A,OpenStreetMap
Bangla  Hotel,Restaurant,,Mirpur,,,,,,23.8059605,90.3744705,"https://www.google.com/maps?q=23.8059605,90.3744705",N/A,N/A,N/A,N/A,OpenStreetMap
Bangla Beef Secret,Restaurant,regional,Mirpur,,,,,,23.8106086,90.3681806,"https://www.google.com/maps?q=23.8106086,90.3681806",N/A,N/A,N/A,N/A,OpenStreetMap
Bangla Biriani House,Restaurant,indian,Pallabi,,,,,,23.8218114,90.3778921,"https://www.google.com/maps?q=23.8218114,90.3778921",N/A,N/A,N/A,N/A,OpenStreetMap
Bangla Khabar Ghar,Restaurant,,Dhanmondi,Green Road,,,Mo-Su 07:00-23:00,,23.7553794,90.3889945,"https://www.google.com/maps?q=23.7553794,90.3889945",N/A,N/A,N/A,N/A,OpenStreetMap
Bangla Restaurant,Restaurant,,Motijheel,"28/A-2, Circular Road",,,Mo-Su 07:00-23:00,,23.730588,90.4161927,"https://www.google.com/maps?q=23.730588,90.4161927",N/A,N/A,N/A,N/A,OpenStreetMap
Bangla Restora-বাংলা রেস্তোরাঁ,Restaurant,regional,Mirpur,,,,08:00-11:00,,23.810118,90.3716442,"https://www.google.com/maps?q=23.810118,90.3716442",N/A,N/A,N/A,N/A,OpenStreetMap
Banoful Sweet Shop,Restaurant,,Postogola,,,,,,23.6939579,90.4344885,"https://www.google.com/maps?q=23.6939579,90.4344885",N/A,N/A,N/A,N/A,OpenStreetMap
Banolata Coffee Shop,Cafe,,Pallabi,,,,"Mo-Su,PH 07:30-23:00",,23.8243437,90.364076,"https://www.google.com/maps?q=23.8243437,90.364076",N/A,N/A,N/A,N/A,OpenStreetMap
Banolata Food Palace,Restaurant,ice_cream;cake;coffee_shop;asian;fish_and_chips;diner;chicken;curry;thai;fish;breakfast;tea;chinese,Mirpur,"Plot 6, Main road 3, Sector 7, Mirpur",+8801938830710,https://www.banolatafoodpalace.com/,Mo-Su 11:00-23:00,,23.8166463,90.3657071,"https://www.google.com/maps?q=23.8166463,90.3657071",N/A,N/A,N/A,N/A,OpenStreetMap
Baoxi Kafei,Restaurant,,Gulshan,"Barun Tower, 15, Gulshan Circle -2",,,,,23.7946812,90.4137302,"https://www.google.com/maps?q=23.7946812,90.4137302",N/A,N/A,N/A,N/A,OpenStreetMap
Bar-B-Q Tonite,Restaurant,,Dhanmondi,,,,,,23.7536736,90.3705514,"https://www.google.com/maps?q=23.7536736,90.3705514",N/A,N/A,N/A,N/A,OpenStreetMap
Barbeque Station,Restaurant,,Mirpur,,,,,,23.8024023,90.3533478,"https://www.google.com/maps?q=23.8024023,90.3533478",N/A,N/A,N/A,N/A,OpenStreetMap
Barisal Muslim Hotel,Restaurant,,Old Dhaka,Nawabpur Rd,,,,,23.7206208,90.4111897,"https://www.google.com/maps?q=23.7206208,90.4111897",N/A,N/A,N/A,N/A,OpenStreetMap
Barishal Hotel And Restaurant,Restaurant,,Gulshan,korail,,,,,23.7829206,90.41171,"https://www.google.com/maps?q=23.7829206,90.41171",N/A,N/A,N/A,N/A,OpenStreetMap
Barna Biryani,Restaurant,,Old Dhaka,Jonson Road,,,Mo-Su 09:00-23:00,,23.7116681,90.4117015,"https://www.google.com/maps?q=23.7116681,90.4117015",N/A,N/A,N/A,N/A,OpenStreetMap
Basilico,Restaurant,,Malibagh,"399/B, Shahid Baki Sarak",+8801745150775,,,,23.75251,90.41739,"https://www.google.com/maps?q=23.75251,90.41739",N/A,N/A,N/A,N/A,OpenStreetMap
Baskin Robbins,Fast Food,,Dhanmondi,,,,,,23.7459754,90.3735659,"https://www.google.com/maps?q=23.7459754,90.3735659",N/A,N/A,N/A,N/A,OpenStreetMap
Basmoti,Restaurant,,Banani,,,,,,23.7927618,90.4044081,"https://www.google.com/maps?q=23.7927618,90.4044081",N/A,N/A,N/A,N/A,OpenStreetMap
Baton Rouge,Restaurant,,Gulshan,,,,,,23.7923662,90.4157108,"https://www.google.com/maps?q=23.7923662,90.4157108",N/A,N/A,N/A,N/A,OpenStreetMap
Bay Leaf,Restaurant,,Mirpur,,,,,,23.8098915,90.3676144,"https://www.google.com/maps?q=23.8098915,90.3676144",N/A,N/A,N/A,N/A,OpenStreetMap
Bay Leaf Restaurant,Café / Coffee Shop,Chinese / Thai / Asian Fusion,Mirpur-10,"House 2, Rd No 5",+880 1792-686878,N/A,11:00 AM – 11:00 PM,N/A,23.8101,90.3637,N/A,3.8,1060,৳৳ Mid-range,"Chinese, Thai, multi-cuisine, party venue",
Beans & Blend,Cafe,,Banani,,,,,,23.7934121,90.4044798,"https://www.google.com/maps?q=23.7934121,90.4044798",N/A,N/A,N/A,N/A,OpenStreetMap
Beans and Grills,Restaurant,,Bashabo,,,,,,23.7629585,90.4337901,"https://www.google.com/maps?q=23.7629585,90.4337901",N/A,N/A,N/A,N/A,OpenStreetMap
Beauty Hotel and Restaurant,Restaurant,,Gulshan,"F-20/5, Progoti Sharani, Middle Badda",,,,,23.7776085,90.4255927,"https://www.google.com/maps?q=23.7776085,90.4255927",N/A,N/A,N/A,N/A,OpenStreetMap
"Beauty Lacchi , Faluda & Kacchi Biriani",Restaurant,regional,Old Dhaka,Kazi Alauddin Road,,,,,23.7216115,90.4057451,"https://www.google.com/maps?q=23.7216115,90.4057451",N/A,N/A,N/A,N/A,OpenStreetMap
Beauty Lacchi Ghor & Faluda,Restaurant,regional,Old Dhaka,Johnson Road,,,08:00-11:00,,23.7128818,90.4114201,"https://www.google.com/maps?q=23.7128818,90.4114201",N/A,N/A,N/A,N/A,OpenStreetMap
Bellagio,Restaurant,,Cantonment,,,,,,23.8037146,90.4110808,"https://www.google.com/maps?q=23.8037146,90.4110808",N/A,N/A,N/A,N/A,OpenStreetMap
Belview ArtCafe,Cafe,,Gulshan,,,,,,23.7907971,90.4067362,"https://www.google.com/maps?q=23.7907971,90.4067362",N/A,N/A,N/A,N/A,OpenStreetMap
Bengal Biriyani,Biriyani House,Bengali / Mughlai,Mirpur DOHS,"DOHS Commercial Complex, Road Number 9",+880 1886-679986,N/A,10:00 AM – 10:00 PM,N/A,23.8379,90.3637,N/A,4.5,13,,"Biriyani, kebab, DOHS area",
Bengal Meat deli,Fast Food,,Gulshan,,,,,,23.7771187,90.4161197,"https://www.google.com/maps?q=23.7771187,90.4161197",N/A,N/A,N/A,N/A,OpenStreetMap
Bengali / Mughlai,Indian / South Asian,Japanese / Korean,Chinese / Thai / Asian Fusion,Tea & Beverages,Café / Bakery / Dessert,N/A,Seafood,N/A,,,N/A,Turkish / Middle Eastern,Western / Grill & Steak,Western / Fast Food,Buffet / Multi-cuisine,
Bengali / Mughlai,Middle Eastern / Arabic,Western / Fast Food,Chinese / Thai / Asian Fusion,,Multi-cuisine,N/A,Buffet / Multi-cuisine,N/A,,,N/A,Café / Bakery / Dessert,Tea & Beverages,Street Food / Snacks,,
Best Fried Chicken,Fast Food,,Shahbagh,"1st Floor, 208, Bara Mogbazar",+880248313320,https://www.bfcbd.com/,,,23.7479109,90.4022828,"https://www.google.com/maps?q=23.7479109,90.4022828",N/A,N/A,N/A,N/A,OpenStreetMap
Bhabir hotel,Restaurant,,Other Dhaka,,,,,,23.7895429,90.388102,"https://www.google.com/maps?q=23.7895429,90.388102",N/A,N/A,N/A,N/A,OpenStreetMap
Bhaggokul Sweets & Snacks,Fast Food,,Other Dhaka,,,,,,23.772228,90.3894996,"https://www.google.com/maps?q=23.772228,90.3894996",N/A,N/A,N/A,N/A,OpenStreetMap
Bhai Bhai Biryani House,Restaurant,,Other Dhaka,Naya Paltan Box Culvert Road,,,Mo-Su 08:00-22:00,,23.732295,90.4135296,"https://www.google.com/maps?q=23.732295,90.4135296",N/A,N/A,N/A,N/A,OpenStreetMap
Bhai Bhai Hotel,Restaurant,,Mirpur,,,,,,23.8099427,90.3754068,"https://www.google.com/maps?q=23.8099427,90.3754068",N/A,N/A,N/A,N/A,OpenStreetMap
"Bhai Bhai Hotel And Restaurant, Restaurant, Goalghat Lane, Dholaikhal, Dhaka",Restaurant,,Old Dhaka,,,,,,23.7138565,90.4132677,"https://www.google.com/maps?q=23.7138565,90.4132677",N/A,N/A,N/A,N/A,OpenStreetMap
Bhai Bon Restaurant,Restaurant,,Bashundhara,,,,,,23.8117828,90.4217949,"https://www.google.com/maps?q=23.8117828,90.4217949",N/A,N/A,N/A,N/A,OpenStreetMap
Bhaigna Dim Chop Ghar,Kebab / Street Grill,Street Food / Snacks,Mirpur-11,"Block-C, Road No 4, Dhaka 1216",+880 1827-510483,N/A,4:00 PM – 1:00 AM,N/A,23.8181,90.3637,N/A,4,63,৳ Budget,"Street-style dim chop, mogoj vuna, kebab",
Bhalgori cafe,Cafe,,Tejgaon,,,,,,23.7781155,90.3965848,"https://www.google.com/maps?q=23.7781155,90.3965848",N/A,N/A,N/A,N/A,OpenStreetMap
Bhoj Banglar Swad,Restaurant,,Other Dhaka,"28/A, Segun Bagicha Rd, Dhaka 1205",+8801788-065174,,"Mo-Th, Sa, Su 12:00-22:00, 13:00-22:00",,23.7337696,90.4067589,"https://www.google.com/maps?q=23.7337696,90.4067589",N/A,N/A,N/A,N/A,OpenStreetMap
Bhooter Bari,Restaurant,,Dhanmondi,,,,,,23.7539432,90.3695795,"https://www.google.com/maps?q=23.7539432,90.3695795",N/A,N/A,N/A,N/A,OpenStreetMap
Biancaffè,Restaurant,chinese,Gulshan,"43, Road 35",,,Su-Fr 10:00-23:00,,23.7881668,90.4144571,"https://www.google.com/maps?q=23.7881668,90.4144571",N/A,N/A,N/A,N/A,OpenStreetMap
Big Bite,Cafe,,Mirpur,1/3,,,,,23.8081329,90.3723679,"https://www.google.com/maps?q=23.8081329,90.3723679",N/A,N/A,N/A,N/A,OpenStreetMap
Big Smoke,Restaurant,,Mirpur,,,,,,23.8184043,90.3657594,"https://www.google.com/maps?q=23.8184043,90.3657594",N/A,N/A,N/A,N/A,OpenStreetMap
Biker Bitz Cafe,Restaurant,,Mirpur,,,,,,23.7933996,90.365276,"https://www.google.com/maps?q=23.7933996,90.365276",N/A,N/A,N/A,N/A,OpenStreetMap
Bikrampur Mishtanno Bhandar,Fast Food,,Mirpur,,,,,,23.8108145,90.3677236,"https://www.google.com/maps?q=23.8108145,90.3677236",N/A,N/A,N/A,N/A,OpenStreetMap
Bikrampur Restore,Restaurant,,Motijheel,Fakirapool Road,,,Mo-Su 07:00-23:00,,23.7333642,90.4154864,"https://www.google.com/maps?q=23.7333642,90.4154864",N/A,N/A,N/A,N/A,OpenStreetMap
Bikrampur Sweets,Fast Food,,Mirpur,,,,,,23.8169992,90.3656344,"https://www.google.com/maps?q=23.8169992,90.3656344",N/A,N/A,N/A,N/A,OpenStreetMap
Bikrompur Biriani,Restaurant,,Uttara,"06, Road 2, Sector 3, Uttara",,,,,23.8613687,90.3989013,"https://www.google.com/maps?q=23.8613687,90.3989013",N/A,N/A,N/A,N/A,OpenStreetMap
Bikrompur Dairy And Foods Store,Restaurant,,Malibagh,,,,,,23.7475117,90.4300756,"https://www.google.com/maps?q=23.7475117,90.4300756",N/A,N/A,N/A,N/A,OpenStreetMap
Bikrompur Mistanno,Restaurant,,Motijheel,,,,,,23.7348488,90.4170797,"https://www.google.com/maps?q=23.7348488,90.4170797",N/A,N/A,N/A,N/A,OpenStreetMap
Binni Restaurant,Bengali / South Asian Restaurant,Bengali / Mughlai,Gulshan 1,"Concord Sark Building, 56/A Rd 132",+880 1823-351225,N/A,12:00 PM – 5:00 AM,N/A,,,N/A,4,1293,৳৳ Mid-range,"Letka khichuri, morog polao, loitta fry, prawn sizzling, late night",
Bird Eye Restaurent,Restaurant,,Dholaikhal,,+88029561049,https://www.agranibank.org/,,,23.7304982,90.4120492,"https://www.google.com/maps?q=23.7304982,90.4120492",N/A,N/A,N/A,N/A,OpenStreetMap
Biriyani House,Restaurant,,Mirpur,,,,,,23.797949,90.3530423,"https://www.google.com/maps?q=23.797949,90.3530423",N/A,N/A,N/A,N/A,OpenStreetMap
Biriyani Hunter,Restaurant,biriany,Other Dhaka,,+8801984130033,,,,23.6987999,90.44456,"https://www.google.com/maps?q=23.6987999,90.44456",N/A,N/A,N/A,N/A,OpenStreetMap
Biriyani Store,Restaurant,,Gulshan,,,,,,23.7768951,90.4259599,"https://www.google.com/maps?q=23.7768951,90.4259599",N/A,N/A,N/A,N/A,OpenStreetMap
Biriyani Wala,Restaurant,,Pallabi,,,,,,23.8363327,90.3766295,"https://www.google.com/maps?q=23.8363327,90.3766295",N/A,N/A,N/A,N/A,OpenStreetMap
Biryani Ghor,Restaurant,,Mohammadpur,Mirpur Road,,,Mo-Su 10:00-22:00,,23.7590912,90.3733931,"https://www.google.com/maps?q=23.7590912,90.3733931",N/A,N/A,N/A,N/A,OpenStreetMap
Bismillah Biriani House,Restaurant,,Bashabo,,,,,,23.7459229,90.4337396,"https://www.google.com/maps?q=23.7459229,90.4337396",N/A,N/A,N/A,N/A,OpenStreetMap
Bismillah Biriyani House,Restaurant,,Mirpur DOHS,"Bawnia Bazar, Bawnia Main Road",,,,,23.8446792,90.3876067,"https://www.google.com/maps?q=23.8446792,90.3876067",N/A,N/A,N/A,N/A,OpenStreetMap
Bismillah Biriyani House,Restaurant,,Other Dhaka,"Bot Tola, Bawnia",,,,,23.8545585,90.386475,"https://www.google.com/maps?q=23.8545585,90.386475",N/A,N/A,N/A,N/A,OpenStreetMap
Bismillah Biriyani House,Restaurant,,Mirpur,,,,,,23.8171145,90.3559377,"https://www.google.com/maps?q=23.8171145,90.3559377",N/A,N/A,N/A,N/A,OpenStreetMap
Bismillah Chatpoti,Fast Food,,Mirpur,,,,,,23.8067938,90.3543052,"https://www.google.com/maps?q=23.8067938,90.3543052",N/A,N/A,N/A,N/A,OpenStreetMap
Bismillah Chotpoti House,Restaurant,,Pallabi,,,,,,23.8352517,90.376713,"https://www.google.com/maps?q=23.8352517,90.376713",N/A,N/A,N/A,N/A,OpenStreetMap
Bismillah Dilli Kabab / বিসমিল্লাহ্ দিল্লি কাবাব,Restaurant,,Old Dhaka,,,,,,23.7087541,90.3933503,"https://www.google.com/maps?q=23.7087541,90.3933503",N/A,N/A,N/A,N/A,OpenStreetMap
Bismillah Dosa Xpress,Cafe,,Mohammadpur,,,,,,23.7642838,90.3586603,"https://www.google.com/maps?q=23.7642838,90.3586603",N/A,N/A,N/A,N/A,OpenStreetMap
Bismillah Hotel,Restaurant,,Demra,,,,,,23.7121245,90.4499111,"https://www.google.com/maps?q=23.7121245,90.4499111",N/A,N/A,N/A,N/A,OpenStreetMap
Bismillah Hotel & Restaurant,Restaurant,,Karwan Bazar,,,,,,23.7555432,90.4073849,"https://www.google.com/maps?q=23.7555432,90.4073849",N/A,N/A,N/A,N/A,OpenStreetMap
"Bismillah Hotel & Restaurant, Mymensingh Ln, Dhaka",Restaurant,,Shahbagh,,,,,,23.7460186,90.3937914,"https://www.google.com/maps?q=23.7460186,90.3937914",N/A,N/A,N/A,N/A,OpenStreetMap
Bismillah Hotel and Restaurant,Restaurant,,Mirpur,,,,,,23.7956735,90.3522033,"https://www.google.com/maps?q=23.7956735,90.3522033",N/A,N/A,N/A,N/A,OpenStreetMap
Bismillah Kabab Ghar,Restaurant,regional,Old Dhaka,Kazi Alauddin Road,,,,,23.7203648,90.4061538,"https://www.google.com/maps?q=23.7203648,90.4061538",N/A,N/A,N/A,N/A,OpenStreetMap
Bismillah Tehari Ghar,Restaurant,,Bashabo,,,,,,23.7520337,90.4324323,"https://www.google.com/maps?q=23.7520337,90.4324323",N/A,N/A,N/A,N/A,OpenStreetMap
Bismillllah Hotel,Restaurant,,Mirpur,,,,,,23.7948782,90.3522231,"https://www.google.com/maps?q=23.7948782,90.3522231",N/A,N/A,N/A,N/A,OpenStreetMap
Bistro,Restaurant,,Malibagh,,,,,,23.7525447,90.4186556,"https://www.google.com/maps?q=23.7525447,90.4186556",N/A,N/A,N/A,N/A,OpenStreetMap
Bistro 16,Casual Dining,Multi-cuisine,Sector 11,"House 27, 11 Road No. 2",+880 1778-130444,N/A,11:00 AM – 11:00 PM,N/A,23.855,90.404,N/A,5,6,,"Small cozy bistro, stuffed chicken, family dining",
Bistro 16 - Uttara,Casual Dining,Multi-cuisine,Sector 11,"House 27, 11 Road No. 2",+880 1778-130444,N/A,11:00 AM – 11:00 PM,N/A,23.855,90.404,N/A,5,6,,"Small bistro, cozy dining",
Bistro-E,Casual Dining,Western / Continental,Gulshan 2,"1st Floor, Bay's Edgewater, 12 Felani Ave",+880 1799-337700,N/A,8:00 AM – 11:30 PM,N/A,,,N/A,4.4,2038,৳৳৳ Premium,"Art gallery, embassy building, premium café-restaurant, foreigners' favourite",
Bittersweet Cafe,Cafe,italian,Gulshan,,,,,,23.7957143,90.4133598,"https://www.google.com/maps?q=23.7957143,90.4133598",N/A,N/A,N/A,N/A,OpenStreetMap
Biye Barir Kacchi,Restaurant,,Bashundhara,,,,,,23.811762,90.4216639,"https://www.google.com/maps?q=23.811762,90.4216639",N/A,N/A,N/A,N/A,OpenStreetMap
BiyeBari Restaurant,Biriyani House,Bengali / Mughlai,Mirpur-12,"Haji Kujrat Ali Mollah Super Market, Mirpur-12",+880 1601-612207,N/A,12:00 PM – 11:00 PM,N/A,23.8272,90.3637,N/A,3.9,254,,"Wedding food themed, kacchi, family events",
Black Bean Cafe,Restaurant,,Pallabi,,,,,,23.8362688,90.3766361,"https://www.google.com/maps?q=23.8362688,90.3766361",N/A,N/A,N/A,N/A,OpenStreetMap
Blue Lagoon,Restaurant,,Mohammadpur,,,,,,23.7856096,90.3776638,"https://www.google.com/maps?q=23.7856096,90.3776638",N/A,N/A,N/A,N/A,OpenStreetMap
Blue Moon Restaurant & Party Centre,Restaurant,,Malibagh,শহীদ বাকি সড়ক,,,,,23.7516016,90.4228214,"https://www.google.com/maps?q=23.7516016,90.4228214",N/A,N/A,N/A,N/A,OpenStreetMap
Blue Olive Restaurant Ltd.,Restaurant,,Unknown,"15, Rampura-Banasree Road",,,,,,,,N/A,N/A,N/A,N/A,OpenStreetMap
Blue Rain,Restaurant,,Mirpur,,,,,,23.8049864,90.3608339,"https://www.google.com/maps?q=23.8049864,90.3608339",N/A,N/A,N/A,N/A,OpenStreetMap
Blue Rain Restaurant,Casual Dining,Multi-cuisine,Mirpur-2,"House-6, Block-G, Avenue-2, Mirpur Rd",+880 1670-195578,N/A,10:00 AM – 11:00 PM,N/A,23.804,90.3637,N/A,3.8,292,,"Indian, chole bhatura, multi-cuisine",
Boba Biryani,Restaurant,,Malibagh,,,,,,23.7474908,90.4298113,"https://www.google.com/maps?q=23.7474908,90.4298113",N/A,N/A,N/A,N/A,OpenStreetMap
Bogurar Doi And Ghol Ghor,Restaurant,,Malibagh,,,,,,23.7476043,90.430287,"https://www.google.com/maps?q=23.7476043,90.430287",N/A,N/A,N/A,N/A,OpenStreetMap
Boishakhi Hotel,Restaurant,,Karwan Bazar,,,,,,23.7515785,90.4064499,"https://www.google.com/maps?q=23.7515785,90.4064499",N/A,N/A,N/A,N/A,OpenStreetMap
Boishakhi Restaurant বৈশাখী রেঁস্তোরা,Restaurant,,Unknown,,,,,,,,,N/A,N/A,N/A,N/A,OpenStreetMap
Boishaki Bangla Restora,Restaurant,,Dhanmondi,,,,,,23.7415064,90.3831137,"https://www.google.com/maps?q=23.7415064,90.3831137",N/A,N/A,N/A,N/A,OpenStreetMap
Boithok,Restaurant,,Unknown,"18, সড়ক ৪",,,,,,,,N/A,N/A,N/A,N/A,OpenStreetMap
Bokhari Biryani,Restaurant,,Old Dhaka,Alauddin Road,,,Mo-Su 10:00-05:00,,23.7204749,90.4059767,"https://www.google.com/maps?q=23.7204749,90.4059767",N/A,N/A,N/A,N/A,OpenStreetMap
Bola Vai Briyani House,Restaurant,,Malibagh,,,,,,23.745428,90.4275985,"https://www.google.com/maps?q=23.745428,90.4275985",N/A,N/A,N/A,N/A,OpenStreetMap
Bombay Sweets & Chanachur,Restaurant,,Old Dhaka,urdu road,,,,,23.7164322,90.3961286,"https://www.google.com/maps?q=23.7164322,90.3961286",N/A,N/A,N/A,N/A,OpenStreetMap
Bonoful Biryani,Restaurant,,Kafrul,,,,,,23.7937261,90.3877759,"https://www.google.com/maps?q=23.7937261,90.3877759",N/A,N/A,N/A,N/A,OpenStreetMap
BooBa,Restaurant,,Mohammadpur,,,,,,23.7634842,90.3623195,"https://www.google.com/maps?q=23.7634842,90.3623195",N/A,N/A,N/A,N/A,OpenStreetMap
Boomer's cafe,Restaurant,chinese;ice_cream;coffee,Other Dhaka,,,,,,23.7416733,90.4100682,"https://www.google.com/maps?q=23.7416733,90.4100682",N/A,N/A,N/A,N/A,OpenStreetMap
Boomerang Kitchen,Fast Food,,Mirpur,,,,,,23.8042065,90.3596032,"https://www.google.com/maps?q=23.8042065,90.3596032",N/A,N/A,N/A,N/A,OpenStreetMap
Boomers Cafe,Cafe,,Bashundhara,,,,,,23.8125151,90.4253896,"https://www.google.com/maps?q=23.8125151,90.4253896",N/A,N/A,N/A,N/A,OpenStreetMap
Bosphorus,Cafe,cafe,Gulshan,Road 28,+8801841993788,,Mo-Mo 08:00-1:00,,23.7831648,90.4163992,"https://www.google.com/maps?q=23.7831648,90.4163992",N/A,N/A,N/A,N/A,OpenStreetMap
Bowlfire,Restaurant,,Mohammadpur,"15/6, Tajmahal Road",+880 1306-713379,,,,23.7634555,90.36222,"https://www.google.com/maps?q=23.7634555,90.36222",N/A,N/A,N/A,N/A,OpenStreetMap
Box Burger,Fast Food,,Mirpur,,,,,,23.8199625,90.3645041,"https://www.google.com/maps?q=23.8199625,90.3645041",N/A,N/A,N/A,N/A,OpenStreetMap
Box Wala,Restaurant,,Mohammadpur,,,,,,23.7614872,90.3607585,"https://www.google.com/maps?q=23.7614872,90.3607585",N/A,N/A,N/A,N/A,OpenStreetMap
Bread & Beyond,Cafe,,Banani,,,,,,23.7923556,90.4046716,"https://www.google.com/maps?q=23.7923556,90.4046716",N/A,N/A,N/A,N/A,OpenStreetMap
Bread & Beyond Uttara,Bakery / Pastry Shop,Café / Bakery / Dessert,Sector 3,"Jashimuddin Avenue, House #14, Road-1",+880 1841-321014,N/A,7:00 AM – 11:00 PM,N/A,23.862,90.399,N/A,4.2,726,৳৳ Mid-range,"Bread, Northend coffee, cookies, almond tile, fast bites",
Bread And Beyond,Cafe,,Malibagh,,,,,,23.7523585,90.4196987,"https://www.google.com/maps?q=23.7523585,90.4196987",N/A,N/A,N/A,N/A,OpenStreetMap
Bread and Beyond,Restaurant,,Malibagh,,,,,,23.7523737,90.4195763,"https://www.google.com/maps?q=23.7523737,90.4195763",N/A,N/A,N/A,N/A,OpenStreetMap
Breadsmith,Bakery / Pastry Shop,Chinese / Thai / Asian Fusion,Mirpur DOHS,"Shop 15 & 16, Floor 8, Mirpur DOHS Shopping Complex",+880 1322-872187,N/A,10:00 AM – 10:00 PM,N/A,23.8379,90.3637,N/A,4.3,488,৳৳ Mid-range,"Bakery, café, mushroom soup, pasta, rice bowl",
Breeze Restaurant,Restaurant,,Cantonment,সড়ক ১৬,,,,,23.8340714,90.4180411,"https://www.google.com/maps?q=23.8340714,90.4180411",N/A,N/A,N/A,N/A,OpenStreetMap
Brewd Harmony Coffee Roasters,Restaurant,coffee_shop,Hatirpool,"Level 11, Chefmate Lounge",,,,,23.7389085,90.378719,"https://www.google.com/maps?q=23.7389085,90.378719",N/A,N/A,N/A,N/A,OpenStreetMap
Brewers Den,Café / Coffee Shop,Western / Continental,Banani (Gulshan adj.),"Ground Floor, Ahmed Tower, 30 Kemal Ataturk Ave",+880 1839-019566,N/A,9:00 AM – 2:00 AM,N/A,,,N/A,4.6,523,,"Best smoked meat sandwich in Dhaka, salt beef, nitro ice tea, mocha lover's pick",
Briani House,Cafe,regional,Jatrabari,,,,,,23.7051022,90.4268701,"https://www.google.com/maps?q=23.7051022,90.4268701",N/A,N/A,N/A,N/A,OpenStreetMap
Broccolia,Restaurant,,Dhanmondi,,,,,,23.7459215,90.371333,"https://www.google.com/maps?q=23.7459215,90.371333",N/A,N/A,N/A,N/A,OpenStreetMap
Brunch at Bailey,Restaurant,,Other Dhaka,,,,,,23.7420787,90.4094535,"https://www.google.com/maps?q=23.7420787,90.4094535",N/A,N/A,N/A,N/A,OpenStreetMap
Brutown,Restaurant,,Other Dhaka,"62/A, Siddeshwari Road",,,10:00-22:00,,23.7427677,90.4075904,"https://www.google.com/maps?q=23.7427677,90.4075904",N/A,N/A,N/A,N/A,OpenStreetMap
Buddur Purir Dokan,Restaurant,,Postogola,Hemendra Das Road,,,,,23.7057188,90.4177691,"https://www.google.com/maps?q=23.7057188,90.4177691",N/A,N/A,N/A,N/A,OpenStreetMap
Buddy's Cafe,Restaurant,,Mirpur,,,,,,23.8100956,90.3658641,"https://www.google.com/maps?q=23.8100956,90.3658641",N/A,N/A,N/A,N/A,OpenStreetMap
Buffet Launge,Restaurant,,Mirpur,,,,,,23.8198729,90.364706,"https://www.google.com/maps?q=23.8198729,90.364706",N/A,N/A,N/A,N/A,OpenStreetMap
Buffet Lounge Mirpur 12,Buffet Restaurant,Bengali / Mughlai,Mirpur-12,"Trust Trouser Ltd., Dhaka 1216",+880 1958-472754,N/A,1:00 PM – 10:00 PM,N/A,23.8272,90.3637,N/A,3.7,1314,,"Buffet, Bengali, Chinese, live BBQ, fuchka",
Buffet Lounge Mirpur 2,Buffet Restaurant,Street Food / Snacks,Mirpur-2,"66, Level 8, Bangladesh Eye Hospital Building",+880 1300-204235,N/A,"1:00 PM – 4:00 PM, 7:00 PM – 10:00 PM",N/A,23.804,90.3637,N/A,3.6,887,৳৳ Mid-range,"Buffet, multi-cuisine, crab, kebab",
Buffet Lounge Uttara,Buffet Restaurant,Café / Bakery / Dessert,Sector 7,"BNS Center, Dhaka 1230",+880 1334-378370,N/A,1:00 PM – 10:00 PM,N/A,23.869,90.393,N/A,3.7,633,৳৳ Mid-range,"Buffet, multi-cuisine, beef, desserts",
Bukhara,Restaurant,,Gulshan,,,,,,23.7934618,90.4057071,"https://www.google.com/maps?q=23.7934618,90.4057071",N/A,N/A,N/A,N/A,OpenStreetMap
Bundose,Restaurant,,Malibagh,,,,,,23.7523315,90.4179876,"https://www.google.com/maps?q=23.7523315,90.4179876",N/A,N/A,N/A,N/A,OpenStreetMap
Burfe,Restaurant,,Bashabo,,,,,,23.7629124,90.4337628,"https://www.google.com/maps?q=23.7629124,90.4337628",N/A,N/A,N/A,N/A,OpenStreetMap
Burg and Drinks,Fast Food,,Mirpur,,,,,,23.8090343,90.3629024,"https://www.google.com/maps?q=23.8090343,90.3629024",N/A,N/A,N/A,N/A,OpenStreetMap
Burger House,Fast Food,,Mirpur,,,,,,23.8066931,90.3540437,"https://www.google.com/maps?q=23.8066931,90.3540437",N/A,N/A,N/A,N/A,OpenStreetMap
Burger King,Fast Food,burger,Other Dhaka,Satmasjid Road,,,10:00-10:00,,23.738371,90.3757403,"https://www.google.com/maps?q=23.738371,90.3757403",N/A,N/A,N/A,N/A,OpenStreetMap
Burger King,Fast Food,burger,Gulshan,"Gulshan Tower, 31, Gulshan North",,,,,23.7954853,90.4135418,"https://www.google.com/maps?q=23.7954853,90.4135418",N/A,N/A,N/A,N/A,OpenStreetMap
Burger King,Fast Food,burger,Bashundhara,,,,,,23.8122811,90.4237473,"https://www.google.com/maps?q=23.8122811,90.4237473",N/A,N/A,N/A,N/A,OpenStreetMap
Burger King,Fast Food,burger,Banani,Road 11,,,,,23.7910646,90.4035109,"https://www.google.com/maps?q=23.7910646,90.4035109",N/A,N/A,N/A,N/A,OpenStreetMap
Burger King Gulshan 2,Fast Food,Western / Continental,Gulshan 2,"Gulshan Centre Point, Plot 31, Gulshan North Ave",+880 1700-704447,N/A,9:00 AM – 2:00 AM,N/A,,,N/A,4.2,3101,৳৳ Mid-range,"International burger chain, whopper, long chicken, late night, kids friendly",
Burger Lab,Fast Food,,Mirpur,,,,,,23.8023418,90.3532323,"https://www.google.com/maps?q=23.8023418,90.3532323",N/A,N/A,N/A,N/A,OpenStreetMap
Burger Lab Uttara,Fast Food,Western / Fast Food,Sector 11,"House-16, Gareeb-e-Newaz Ave",+880 1782-570989,N/A,11:30 AM – 11:00 PM,N/A,23.855,90.404,N/A,4.2,445,,"Premium burger, platter, cold coffee, kids play zone",
Burger Land,Restaurant,,Malibagh,,,,,,23.7543858,90.4156308,"https://www.google.com/maps?q=23.7543858,90.4156308",N/A,N/A,N/A,N/A,OpenStreetMap
Burger NCC,Fast Food,,Mirpur,,,,,,23.7970034,90.3652401,"https://www.google.com/maps?q=23.7970034,90.3652401",N/A,N/A,N/A,N/A,OpenStreetMap
Burger Time,Fast Food,,Bashabo,,,,,,23.7621465,90.4333238,"https://www.google.com/maps?q=23.7621465,90.4333238",N/A,N/A,N/A,N/A,OpenStreetMap
Burger Xpress,Restaurant,,Mohammadpur,,,,,,23.7623734,90.3612439,"https://www.google.com/maps?q=23.7623734,90.3612439",N/A,N/A,N/A,N/A,OpenStreetMap
Burger Xpress,Restaurant,burger,Other Dhaka,নিউ বেইলি রোড,,,,,23.7419367,90.4106764,"https://www.google.com/maps?q=23.7419367,90.4106764",N/A,N/A,N/A,N/A,OpenStreetMap
Burger Xpress Mirpur,Restaurant,,Mirpur,,,,,,23.8095968,90.3704657,"https://www.google.com/maps?q=23.8095968,90.3704657",N/A,N/A,N/A,N/A,OpenStreetMap
Burger Zone,Fast Food,burger;coffee_shop;sandwich,Other Dhaka,Hazi Badsha Miah Road,,,,,23.6950557,90.4758243,"https://www.google.com/maps?q=23.6950557,90.4758243",N/A,N/A,N/A,N/A,OpenStreetMap
Burger in,Restaurant,,Other Dhaka,,,,,,23.741918,90.4102984,"https://www.google.com/maps?q=23.741918,90.4102984",N/A,N/A,N/A,N/A,OpenStreetMap
Burger.com,Restaurant,,Mohammadpur,,,,,,23.7628612,90.3591467,"https://www.google.com/maps?q=23.7628612,90.3591467",N/A,N/A,N/A,N/A,OpenStreetMap
Burgerology,Fast Food,,Bashundhara,,,,,,23.8122933,90.4245979,"https://www.google.com/maps?q=23.8122933,90.4245979",N/A,N/A,N/A,N/A,OpenStreetMap
Burgerology,Fast Food,burger,Shahbagh,"209, Kudrat-i-khuda road, elephant road",+880 1741-987805,,10:30-23:00,,23.7405936,90.3900338,"https://www.google.com/maps?q=23.7405936,90.3900338",N/A,N/A,N/A,N/A,OpenStreetMap
Butternote,Cafe,coffee_shop,Gulshan,"157, সড়ক ১২",,http://facebook.com/butternotejazzcafe,Mo-Su 09:30-23:00,,23.7928951,90.4084633,"https://www.google.com/maps?q=23.7928951,90.4084633",N/A,N/A,N/A,N/A,OpenStreetMap
C mainor,Restaurant,,Other Dhaka,,,,,,23.7393539,90.3751871,"https://www.google.com/maps?q=23.7393539,90.3751871",N/A,N/A,N/A,N/A,OpenStreetMap
C.P.,Restaurant,chicken,Old Dhaka,,,,,,23.7086845,90.4147377,"https://www.google.com/maps?q=23.7086845,90.4147377",N/A,N/A,N/A,N/A,OpenStreetMap
CAFE Mushroom,BBQ / Grill,Western / Fast Food,Mirpur DOHS,"House #1, Road No 20",+880 1911-117385,N/A,4:00 PM – 11:30 PM,N/A,23.8379,90.3637,N/A,4.7,115,,"Beef brisket slow-cook, steak, BBQ grill",
CFC,Restaurant,,Shahbagh,,,,,,23.7379026,90.3963074,"https://www.google.com/maps?q=23.7379026,90.3963074",N/A,N/A,N/A,N/A,OpenStreetMap
CFC (California Fried Chicken),Fast Food,fried_chicken;cakes;pastry,Dhanmondi,,,,,,23.7473259,90.380339,"https://www.google.com/maps?q=23.7473259,90.380339",N/A,N/A,N/A,N/A,OpenStreetMap
CHANDPUR SOHAD HOTEL,Restaurant,,Mirpur,,,,,,23.8090113,90.3669804,"https://www.google.com/maps?q=23.8090113,90.3669804",N/A,N/A,N/A,N/A,OpenStreetMap
CNC,Cafe,pizza;burger;sandwich;ice_cream;regional;coffee_shop;asian,Pallabi,,,,10:00-22:00,,23.8361629,90.3712221,"https://www.google.com/maps?q=23.8361629,90.3712221",N/A,N/A,N/A,N/A,OpenStreetMap
CNG restaurant,Restaurant,,Unknown,,,,,,,,,N/A,N/A,N/A,N/A,OpenStreetMap
COFFEE WORLD,Cafe,,Banani,,,,,,23.7907399,90.4041131,"https://www.google.com/maps?q=23.7907399,90.4041131",N/A,N/A,N/A,N/A,OpenStreetMap
CP 5 Star,Restaurant,chicken,Bashabo,,,,,,23.7457209,90.4337734,"https://www.google.com/maps?q=23.7457209,90.4337734",N/A,N/A,N/A,N/A,OpenStreetMap
CP Chicken,Fast Food,chicken,Malibagh,শহীদ বাকি সড়ক,,,,,23.7518813,90.4228052,"https://www.google.com/maps?q=23.7518813,90.4228052",N/A,N/A,N/A,N/A,OpenStreetMap
CP Chicken,Fast Food,chicken,Bashabo,,,,,,23.7482107,90.4329249,"https://www.google.com/maps?q=23.7482107,90.4329249",N/A,N/A,N/A,N/A,OpenStreetMap
CP FIve Star,Fast Food,,Mirpur,,,,,,23.8007623,90.3550198,"https://www.google.com/maps?q=23.8007623,90.3550198",N/A,N/A,N/A,N/A,OpenStreetMap
CP Five Star,Fast Food,,Old Dhaka,Abul Hasnat Road,,,,,23.7174282,90.4021107,"https://www.google.com/maps?q=23.7174282,90.4021107",N/A,N/A,N/A,N/A,OpenStreetMap
CP Five Star,Fast Food,,Hazaribagh,Jigatala,,,Mo-Su 09:00-22:00,,23.7386933,90.3744603,"https://www.google.com/maps?q=23.7386933,90.3744603",N/A,N/A,N/A,N/A,OpenStreetMap
CP Five Star,Restaurant,fried_chicken,Other Dhaka,,,,,,23.7340594,90.406552,"https://www.google.com/maps?q=23.7340594,90.406552",N/A,N/A,N/A,N/A,OpenStreetMap
CP Five Star,Fast Food,,Other Dhaka,"Ashkona, Dakshinkhan Road",+8801966234420,,,,23.8515332,90.4170917,"https://www.google.com/maps?q=23.8515332,90.4170917",N/A,N/A,N/A,N/A,OpenStreetMap
CP Five Star,Fast Food,,Old Dhaka,Alauddin Road,,,"Mo, We-Su 09:00-12:00",,23.7219153,90.4057219,"https://www.google.com/maps?q=23.7219153,90.4057219",N/A,N/A,N/A,N/A,OpenStreetMap
CP Five Star,Fast Food,,Old Dhaka,Jonson Road,,,Mo-Su 09:00-22:00,,23.7129596,90.4116754,"https://www.google.com/maps?q=23.7129596,90.4116754",N/A,N/A,N/A,N/A,OpenStreetMap
CP Five Star,Fast Food,,Other Dhaka,S. Nazrul Islam Sharani,,,,,23.7333994,90.4100021,"https://www.google.com/maps?q=23.7333994,90.4100021",N/A,N/A,N/A,N/A,OpenStreetMap
CP Five Star Chicken,Food Court,,Gulshan,,,,,,23.7835106,90.4259843,"https://www.google.com/maps?q=23.7835106,90.4259843",N/A,N/A,N/A,N/A,OpenStreetMap
CP Five Star সিপি ফাইভ স্টার,Fast Food,,Uttara,,,,,,23.8937992,90.4040466,"https://www.google.com/maps?q=23.8937992,90.4040466",N/A,N/A,N/A,N/A,OpenStreetMap
CP Fried Chicken,Fast Food,,Other Dhaka,,,,,,23.7793021,90.3790285,"https://www.google.com/maps?q=23.7793021,90.3790285",N/A,N/A,N/A,N/A,OpenStreetMap
CP five Star,Fast Food,regional,Shahbagh,"112, Central Road",,,,,23.741736,90.3900534,"https://www.google.com/maps?q=23.741736,90.3900534",N/A,N/A,N/A,N/A,OpenStreetMap
CP food,Restaurant,,Mohammadpur,,,,Mo-Su 09:00-21:00,,23.7893031,90.352366,"https://www.google.com/maps?q=23.7893031,90.352366",N/A,N/A,N/A,N/A,OpenStreetMap
CP fried chicken,Fast Food,chicken,Uttara,,,,,,23.8645758,90.4017242,"https://www.google.com/maps?q=23.8645758,90.4017242",N/A,N/A,N/A,N/A,OpenStreetMap
Cadet College Club,Restaurant,regional,Other Dhaka,,,,,,23.8401786,90.4865203,"https://www.google.com/maps?q=23.8401786,90.4865203",N/A,N/A,N/A,N/A,OpenStreetMap
Cafe 21,Fast Food,,Mohammadpur,,,,,,23.7724688,90.3655045,"https://www.google.com/maps?q=23.7724688,90.3655045",N/A,N/A,N/A,N/A,OpenStreetMap
Cafe 3,Cafe,,Malibagh,,,,,,23.7525457,90.418738,"https://www.google.com/maps?q=23.7525457,90.418738",N/A,N/A,N/A,N/A,OpenStreetMap
Cafe 360,Fast Food,,Mirpur,,,,,,23.8100993,90.3659896,"https://www.google.com/maps?q=23.8100993,90.3659896",N/A,N/A,N/A,N/A,OpenStreetMap
Cafe 4 Star Restaurant,Biriyani House,Bengali / Mughlai,Mirpur-10,"12 Ave No. 1, Dhaka 1216",+880 1759-052121,N/A,6:00 AM – 12:30 AM,N/A,23.8101,90.3637,N/A,4.1,234,৳৳ Mid-range,"Bengali breakfast, paratha, dal, kacchi",
Cafe 46,Restaurant,,Mohammadpur,,,,,,23.7633406,90.3618729,"https://www.google.com/maps?q=23.7633406,90.3618729",N/A,N/A,N/A,N/A,OpenStreetMap
Cafe 52,Restaurant,,Gulshan,,,,,,23.7945507,90.4127595,"https://www.google.com/maps?q=23.7945507,90.4127595",N/A,N/A,N/A,N/A,OpenStreetMap
Cafe 99,Cafe,,Mirpur,,,,,,23.8074331,90.3753193,"https://www.google.com/maps?q=23.8074331,90.3753193",N/A,N/A,N/A,N/A,OpenStreetMap
Cafe Al Mamun,Cafe,,Mohammadpur,,,,,,23.7624912,90.361201,"https://www.google.com/maps?q=23.7624912,90.361201",N/A,N/A,N/A,N/A,OpenStreetMap
Cafe Appeliano,Restaurant,,Malibagh,"567/A, শহীদ বাকি সড়ক",,,,,23.7520122,90.4214025,"https://www.google.com/maps?q=23.7520122,90.4214025",N/A,N/A,N/A,N/A,OpenStreetMap
Cafe Appleliano,Restaurant,,Other Dhaka,"42, Satmasjid Road",01848359924,,"Mo-Th,Sa-Su 12:00-23:00; Fr 14:00-23:00",,23.7386961,90.375516,"https://www.google.com/maps?q=23.7386961,90.375516",N/A,N/A,N/A,N/A,OpenStreetMap
Cafe Avengers,Restaurant,,Pallabi,,,,,,23.8364637,90.3767089,"https://www.google.com/maps?q=23.8364637,90.3767089",N/A,N/A,N/A,N/A,OpenStreetMap
Cafe Basomoti,Restaurant,,Unknown,,,,,,,,,N/A,N/A,N/A,N/A,OpenStreetMap
Cafe Bismillah Restaurant,Restaurant,,Rampura,"La - 15/1, Merul Badda",,,,,23.7715258,90.4254031,"https://www.google.com/maps?q=23.7715258,90.4254031",N/A,N/A,N/A,N/A,OpenStreetMap
"Cafe Boyati (kebab & Juice bar), Restaurant, Bashu Bajar Lane, Dhaka 1100",Restaurant,,Jatrabari,,,,,,23.7121516,90.4229285,"https://www.google.com/maps?q=23.7121516,90.4229285",N/A,N/A,N/A,N/A,OpenStreetMap
Cafe Colombia,Restaurant,,Gulshan,,,,,,23.780228,90.417032,"https://www.google.com/maps?q=23.780228,90.417032",N/A,N/A,N/A,N/A,OpenStreetMap
Cafe Costaba,Cafe,,Malibagh,,,,,,23.7510391,90.4208914,"https://www.google.com/maps?q=23.7510391,90.4208914",N/A,N/A,N/A,N/A,OpenStreetMap
Cafe Darbar,Restaurant,,Unknown,,,,,,,,,N/A,N/A,N/A,N/A,OpenStreetMap
Cafe Darbar Uttara,Fast Food,Bengali / Mughlai,Sector 13,"5th Floor, Walton Plaza, 13 Mor, Shah Makhdum Ave",+880 1775-666262,N/A,11:00 AM – 10:30 PM,N/A,23.855,90.404,N/A,4,2898,৳৳ Mid-range,"Baked pasta, pizza, biryani, rooftop, kids play zone",
Cafe De Cold,Fast Food,,Mirpur,,,,,,23.8103826,90.3664818,"https://www.google.com/maps?q=23.8103826,90.3664818",N/A,N/A,N/A,N/A,OpenStreetMap
Cafe Delight,Cafe,,Uttara,"3, 3/A, Mymensingh Road, Sector 3, Uttara C/A",,https://www.mysecondcup.com/,,,23.8612473,90.399743,"https://www.google.com/maps?q=23.8612473,90.399743",N/A,N/A,N/A,N/A,OpenStreetMap
Cafe Deltaco,Restaurant,mexican,Other Dhaka,,+8801715-116644,,,,23.8484845,90.4796122,"https://www.google.com/maps?q=23.8484845,90.4796122",N/A,N/A,N/A,N/A,OpenStreetMap
Cafe Droom,Cafe,coffee_shop,Hazaribagh,,,,,,23.7445525,90.3720632,"https://www.google.com/maps?q=23.7445525,90.3720632",N/A,N/A,N/A,N/A,OpenStreetMap
Cafe Express,Restaurant,,Mohammadpur,,,,,,23.7652395,90.3584838,"https://www.google.com/maps?q=23.7652395,90.3584838",N/A,N/A,N/A,N/A,OpenStreetMap
Cafe Glory,Cafe,,Mirpur,,,,,,23.8062595,90.3733173,"https://www.google.com/maps?q=23.8062595,90.3733173",N/A,N/A,N/A,N/A,OpenStreetMap
Cafe Green,Cafe,,Mirpur,,,,,,23.8101483,90.3660235,"https://www.google.com/maps?q=23.8101483,90.3660235",N/A,N/A,N/A,N/A,OpenStreetMap
Cafe Imperial,Restaurant,,Mirpur,13,,,"PH,Mo-Su 10:00-22:00",,23.8079702,90.3724508,"https://www.google.com/maps?q=23.8079702,90.3724508",N/A,N/A,N/A,N/A,OpenStreetMap
Cafe IraMon,Restaurant,,Mirpur,,,,,,23.7932153,90.3654619,"https://www.google.com/maps?q=23.7932153,90.3654619",N/A,N/A,N/A,N/A,OpenStreetMap
Cafe Junction,Café / Coffee Shop,Café / Bakery / Dessert,Mirpur-11,"Section 11, Block A, Road 08",+880 1681-173391,N/A,10:00 AM – 11:00 PM,N/A,23.8181,90.3637,N/A,4.2,13,,"Small café, lemon juice, coffee",
Cafe Kabbo,Cafe,,Rampura,,,,,,23.762678,90.4307576,"https://www.google.com/maps?q=23.762678,90.4307576",N/A,N/A,N/A,N/A,OpenStreetMap
Cafe Magic,Cafe,,Dhanmondi,,,,,,23.7642967,90.3895828,"https://www.google.com/maps?q=23.7642967,90.3895828",N/A,N/A,N/A,N/A,OpenStreetMap
Cafe Mango,Restaurant,coffee_shop;regional;pasta;breakfast;juice,Gulshan,"60/D, Road 131",+8801741087722,,10:00-22:00,,23.7817988,90.4177268,"https://www.google.com/maps?q=23.7817988,90.4177268",N/A,N/A,N/A,N/A,OpenStreetMap
Cafe Mormor,Cafe,,Shahbagh,,,,"Mo-Th,Sa-Su 10:00-22:00; Fr off",,23.7385918,90.3929405,"https://www.google.com/maps?q=23.7385918,90.3929405",N/A,N/A,N/A,N/A,OpenStreetMap
Cafe N15,Cafe,,Mirpur,,,,,,23.8066655,90.3539607,"https://www.google.com/maps?q=23.8066655,90.3539607",N/A,N/A,N/A,N/A,OpenStreetMap
Cafe Noor Hotel & Restaurant,Restaurant,,Motijheel,Outer Circular Road,,,Mo-Su 07:00-23:00,,23.7344493,90.4178629,"https://www.google.com/maps?q=23.7344493,90.4178629",N/A,N/A,N/A,N/A,OpenStreetMap
Cafe Party Center,Restaurant,,Unknown,,,,,,,,,N/A,N/A,N/A,N/A,OpenStreetMap
Cafe Prince,Cafe,,Uttara West,,,,,,23.874465,90.3678086,"https://www.google.com/maps?q=23.874465,90.3678086",N/A,N/A,N/A,N/A,OpenStreetMap
Cafe Rain Street,Casual Dining,Western / Fast Food,Mirpur-1,"House-32, Rd No. 5",+880 1778-088084,N/A,11:45 AM – 10:00 PM,N/A,23.8009,90.3637,N/A,3.9,1362,৳৳ Mid-range,"Aesthetic café, pizza, burger, meatbox",
Cafe Rondhon Restora,Restaurant,,Mirpur,,,,,,23.7922093,90.3653561,"https://www.google.com/maps?q=23.7922093,90.3653561",N/A,N/A,N/A,N/A,OpenStreetMap
"Cafe Saadi Restaurant, Mayor Mohammad Hanif Flyover, Dhaka",Restaurant,,Jatrabari,,,,,,23.7142012,90.42568,"https://www.google.com/maps?q=23.7142012,90.42568",N/A,N/A,N/A,N/A,OpenStreetMap
Cafe Samabesh,Cafe,,Shahbagh,,,,,,23.7385427,90.3933872,"https://www.google.com/maps?q=23.7385427,90.3933872",N/A,N/A,N/A,N/A,OpenStreetMap
Cafe Shadhin,Restaurant,,Demra,,,,,,23.7124916,90.4502141,"https://www.google.com/maps?q=23.7124916,90.4502141",N/A,N/A,N/A,N/A,OpenStreetMap
Cafe Sun,Restaurant,,Rayer Bazar,Monessor Road,,,,,23.7390145,90.3674138,"https://www.google.com/maps?q=23.7390145,90.3674138",N/A,N/A,N/A,N/A,OpenStreetMap
Cafe Surma Hotel and Restaurant,Restaurant,,Panthapath,,,,24/7,,23.7523968,90.393819,"https://www.google.com/maps?q=23.7523968,90.393819",N/A,N/A,N/A,N/A,OpenStreetMap
Cafe Sweet And Savoury,Restaurant,,Malibagh,,,,,,23.7518623,90.4219799,"https://www.google.com/maps?q=23.7518623,90.4219799",N/A,N/A,N/A,N/A,OpenStreetMap
Cafe Tales,Restaurant,,Mohammadpur,,,,,,23.7590593,90.36217,"https://www.google.com/maps?q=23.7590593,90.36217",N/A,N/A,N/A,N/A,OpenStreetMap
Cafe Vista,Cafe,,Pallabi,,,,,,23.8399323,90.3574248,"https://www.google.com/maps?q=23.8399323,90.3574248",N/A,N/A,N/A,N/A,OpenStreetMap
Cafe Vista Extension,Cafe,,Unknown,,,,,,,,,N/A,N/A,N/A,N/A,OpenStreetMap
Cafe bogdad,Cafe,regional,Mohammadpur,,,,,,23.7567583,90.3609563,"https://www.google.com/maps?q=23.7567583,90.3609563",N/A,N/A,N/A,N/A,OpenStreetMap
Cafeteria,Cafe,,Elephant Road,"32/2, Mirpur Road",,,"Mo-Th,Sa-Su 10:00-22:00",,23.7374807,90.3841774,"https://www.google.com/maps?q=23.7374807,90.3841774",N/A,N/A,N/A,N/A,OpenStreetMap
Cafeteria 1,Cafe,,Unknown,,,,,,,,,N/A,N/A,N/A,N/A,OpenStreetMap
Cafeteria 2,Cafe,,Unknown,,,,,,,,,N/A,N/A,N/A,N/A,OpenStreetMap
Caffe Dhansiri,Restaurant,,Mirpur,,,,Mo-Su 06:19-12:00,,23.7986247,90.3536639,"https://www.google.com/maps?q=23.7986247,90.3536639",N/A,N/A,N/A,N/A,OpenStreetMap
Café Selfie,Cafe,,Mohammadpur,,,,,,23.7648983,90.3585808,"https://www.google.com/maps?q=23.7648983,90.3585808",N/A,N/A,N/A,N/A,OpenStreetMap
Cake Stories,Fast Food,,Mirpur,,,,,,23.8095295,90.3677461,"https://www.google.com/maps?q=23.8095295,90.3677461",N/A,N/A,N/A,N/A,OpenStreetMap
Cake Story,Cafe,,Malibagh,,,,,,23.7522681,90.4172005,"https://www.google.com/maps?q=23.7522681,90.4172005",N/A,N/A,N/A,N/A,OpenStreetMap
Cake Storys,Bakery / Pastry Shop,Café / Bakery / Dessert,Mirpur-10,"House 02, Road-04, Sector-06, Block-A, Mirpur",+880 1325-773252,N/A,7:00 AM – 11:00 PM,N/A,23.8101,90.3637,N/A,4.1,72,,"Cakes, doughnuts, eclairs, unique flavours",
Cake Storys,Bakery / Pastry Shop,Café / Bakery / Dessert,Mirpur 60 Feet,"220/4, Dokhin Pererbag, Amtola Bazar, Kamal Soroni Rd",+880 1728-778856,N/A,7:00 AM – 11:00 PM,N/A,23.7848,90.3637,N/A,4.3,214,,"Cakes, coconut vanilla, strawberry, creative flavours",
Cake Storys Uttara,Bakery / Pastry Shop,Turkish / Middle Eastern,Sector 13,"18 Shah Makdum Avenue Rd, Sector 13",+880 1325-745455,N/A,7:00 AM – 11:00 PM,N/A,23.855,90.404,N/A,4.1,62,,"Pastry, cakes, customised, unique deco, shawarma",
California Fried Chicken,Restaurant,,Pallabi,,,,,,23.8229172,90.3641354,"https://www.google.com/maps?q=23.8229172,90.3641354",N/A,N/A,N/A,N/A,OpenStreetMap
California Fried Chicken & Pastry Shop (CFC),Fast Food,chicken,Other Dhaka,"4, Road 4",+8801962444111,,,,23.8591117,90.4019047,"https://www.google.com/maps?q=23.8591117,90.4019047",N/A,N/A,N/A,N/A,OpenStreetMap
California Pastry Shop,Fast Food,,Mohammadpur,,,,,,23.756282,90.374756,"https://www.google.com/maps?q=23.756282,90.374756",N/A,N/A,N/A,N/A,OpenStreetMap
Camallia Fast Food,Fast Food,,Elephant Road,Shahid Janani Jahanara Imam Sarani,,,10:00-20:00,,23.7349282,90.3850856,"https://www.google.com/maps?q=23.7349282,90.3850856",N/A,N/A,N/A,N/A,OpenStreetMap
Campfire,Restaurant,coffee_shop;chinese;kebab;asian;thai,Uttara,"74, Gausul Azam Avenue, Everest Tower.","+8801712844088, +8801707116070, +8801707116080",www.campfiredhaka.com,Mo-Su 11:00-23:00,,23.8694639,90.3856385,"https://www.google.com/maps?q=23.8694639,90.3856385",N/A,N/A,N/A,N/A,OpenStreetMap
Campus Shadow of University of Dhaka,Restaurant,,Elephant Road,Across Mall Chottor,,,Su-Th 08:00-18:00,,23.7343559,90.3920322,"https://www.google.com/maps?q=23.7343559,90.3920322",N/A,N/A,N/A,N/A,OpenStreetMap
Canary Restaurant,Restaurant,,Bashundhara,,,,,,23.8125126,90.4253776,"https://www.google.com/maps?q=23.8125126,90.4253776",N/A,N/A,N/A,N/A,OpenStreetMap
Canteen,Restaurant,,Unknown,sm hall,,,,,,,,N/A,N/A,N/A,N/A,OpenStreetMap
Canteen,Restaurant,regional,Unknown,Kurmitola Road,,,,,,,,N/A,N/A,N/A,N/A,OpenStreetMap
Canteen,Restaurant,regional,Shahbagh,,,,,,23.7390142,90.3950787,"https://www.google.com/maps?q=23.7390142,90.3950787",N/A,N/A,N/A,N/A,OpenStreetMap
Canteen,Restaurant,regional,Dhanmondi,"46, Central Road",,,Mo-Fr 10:00-16:00; Sa-Su off,,23.7416183,90.385348,"https://www.google.com/maps?q=23.7416183,90.385348",N/A,N/A,N/A,N/A,OpenStreetMap
Caown Cafe,Cafe,,Mirpur,,,,,,23.8198119,90.3644668,"https://www.google.com/maps?q=23.8198119,90.3644668",N/A,N/A,N/A,N/A,OpenStreetMap
Capital's Baily deli,Food Court,,Other Dhaka,,,,,,23.7416929,90.4103995,"https://www.google.com/maps?q=23.7416929,90.4103995",N/A,N/A,N/A,N/A,OpenStreetMap
Capsicum Thai and Chinese Restaurant,Restaurant,,Dhanmondi,,,,,,23.7580298,90.3867542,"https://www.google.com/maps?q=23.7580298,90.3867542",N/A,N/A,N/A,N/A,OpenStreetMap
Captain's World,Restaurant,,Unknown,Bir Uttam Ziaur Rahman Road,,,,,,,,N/A,N/A,N/A,N/A,OpenStreetMap
"Captains World,Fast food restaurant",Restaurant,,Cantonment,,,,,,23.8080706,90.4036524,"https://www.google.com/maps?q=23.8080706,90.4036524",N/A,N/A,N/A,N/A,OpenStreetMap
Carnish,Rooftop Restaurant,Bengali / Mughlai,Sector 11,"Plot No. 41, Garib-E-Newaz Ave",+880 1894-582282,N/A,12:00 PM – 11:00 PM,N/A,23.855,90.404,N/A,4.1,205,,"Rooftop, traditional Bengali décor, masala tea, kabab, photos",
Cart Station,Restaurant,,Other Dhaka,,,,,,23.7398721,90.3753122,"https://www.google.com/maps?q=23.7398721,90.3753122",N/A,N/A,N/A,N/A,OpenStreetMap
Celebrate Cafe & Restaurant,Fast Food,Bengali / Mughlai,Pallabi,"House 191, Road No. 10, Dhaka 1216",+880 1825-655656,N/A,12:00 PM – 10:00 PM,N/A,23.8244,90.3637,N/A,4.2,613,৳৳ Mid-range,"Bengali & fast food, set menus, affordable",
Century,Cafe,,Malibagh,,,,,,23.7491588,90.4261592,"https://www.google.com/maps?q=23.7491588,90.4261592",N/A,N/A,N/A,N/A,OpenStreetMap
Cfc,Fast Food,,Niketan,,,,,,23.7744095,90.4149552,"https://www.google.com/maps?q=23.7744095,90.4149552",N/A,N/A,N/A,N/A,OpenStreetMap
Cha & Chill,Restaurant,,Mohammadpur,,,,,,23.7624225,90.3621123,"https://www.google.com/maps?q=23.7624225,90.3621123",N/A,N/A,N/A,N/A,OpenStreetMap
Cha Bar,Cafe,regional,Dhanmondi,,,,,,23.7462156,90.3710188,"https://www.google.com/maps?q=23.7462156,90.3710188",N/A,N/A,N/A,N/A,OpenStreetMap
Cha Bari,Restaurant,,Old Dhaka,,,,,,23.7149257,90.4190445,"https://www.google.com/maps?q=23.7149257,90.4190445",N/A,N/A,N/A,N/A,OpenStreetMap
Cha Chumuk,Cafe,,Banani,,,,,,23.7925679,90.4047172,"https://www.google.com/maps?q=23.7925679,90.4047172",N/A,N/A,N/A,N/A,OpenStreetMap
Cha Sowdagar,Cafe,,Mirpur DOHS,,,https://www.facebook.com/cha.sowdagar/,,,23.8228235,90.3934015,"https://www.google.com/maps?q=23.8228235,90.3934015",N/A,N/A,N/A,N/A,OpenStreetMap
Chaap Ghor Mirpur,Casual Dining,Bengali / Mughlai,Mirpur-2,"Avenue-1, Block-C, House-18, Sector-2",+880 1730-146561,N/A,3:30 PM – 11:00 PM,N/A,23.804,90.3637,N/A,4.1,659,,"Chicken chaap, luchi, seekh kabab, naan",
Chad Restaurant,Restaurant,,Mirpur,,,,,,23.7980953,90.3526321,"https://www.google.com/maps?q=23.7980953,90.3526321",N/A,N/A,N/A,N/A,OpenStreetMap
Chadni Kacchi Biryani,Restaurant,,Mirpur,,,,,,23.8024264,90.3533951,"https://www.google.com/maps?q=23.8024264,90.3533951",N/A,N/A,N/A,N/A,OpenStreetMap
Chadpur Hotel,Food Court,,Jatrabari,,,,,,23.7152484,90.4258086,"https://www.google.com/maps?q=23.7152484,90.4258086",N/A,N/A,N/A,N/A,OpenStreetMap
Chaina Sizzling,Restaurant,,Malibagh,,,,,,23.7523163,90.4208211,"https://www.google.com/maps?q=23.7523163,90.4208211",N/A,N/A,N/A,N/A,OpenStreetMap
Chamak Kabab Ghar,Restaurant,,Bashabo,,,,,,23.7486713,90.4331202,"https://www.google.com/maps?q=23.7486713,90.4331202",N/A,N/A,N/A,N/A,OpenStreetMap
Chamichi,Cafe,bubble_tea,Rayer Bazar,"60, Dhanmondi 16",,,,,23.7520391,90.3678534,"https://www.google.com/maps?q=23.7520391,90.3678534",N/A,N/A,N/A,N/A,OpenStreetMap
Chander Bari Rooftop Restauraunt,Restaurant,,Mohammadpur,,,,,,23.7875165,90.3669079,"https://www.google.com/maps?q=23.7875165,90.3669079",N/A,N/A,N/A,N/A,OpenStreetMap
Chander Haat Food,Restaurant,,Pallabi,,,,,,23.8364041,90.376625,"https://www.google.com/maps?q=23.8364041,90.376625",N/A,N/A,N/A,N/A,OpenStreetMap
Chandrabindu Restaurant,Restaurant,,Mirpur,,,,,,23.8097971,90.3680514,"https://www.google.com/maps?q=23.8097971,90.3680514",N/A,N/A,N/A,N/A,OpenStreetMap
Chap Station,Fast Food,,Tejgaon,,,,,,23.7707841,90.4058063,"https://www.google.com/maps?q=23.7707841,90.4058063",N/A,N/A,N/A,N/A,OpenStreetMap
Charcoal BAR & BBQ Restaurant,BBQ / Grill,Western / Grill & Steak,Sector 1 (BW Maple Leaf Hotel),"Plot 1B, Maple Leaf Hotel, Road No. 1",+880 1966-667652,N/A,4:00 PM – 11:00 PM,N/A,23.855,90.404,N/A,4.5,441,,"Rooftop bar & BBQ, ribeye steak, airport view, expat favourite",
Charcoal Steak House,Restaurant,,Gulshan,"3, Road 136",,,,,23.7788276,90.4172674,"https://www.google.com/maps?q=23.7788276,90.4172674",N/A,N/A,N/A,N/A,OpenStreetMap
Charulota Restaurant,Restaurant,,Panthapath,,,,,,23.7523126,90.3932987,"https://www.google.com/maps?q=23.7523126,90.3932987",N/A,N/A,N/A,N/A,OpenStreetMap
Chatime,Cafe,tea;smoothies,Dhanmondi,Dhanmondi 9/A,,,,,23.7494913,90.3688256,"https://www.google.com/maps?q=23.7494913,90.3688256",N/A,N/A,N/A,N/A,OpenStreetMap
Chatpoti,Fast Food,,Mirpur,,,,,,23.8066801,90.3539963,"https://www.google.com/maps?q=23.8066801,90.3539963",N/A,N/A,N/A,N/A,OpenStreetMap
Chattala Dine,Restaurant,,Mohammadpur,,,,,,23.7628183,90.3643546,"https://www.google.com/maps?q=23.7628183,90.3643546",N/A,N/A,N/A,N/A,OpenStreetMap
Chayer Adda,Fast Food,,Bashundhara,,,,,,23.812457,90.4251333,"https://www.google.com/maps?q=23.812457,90.4251333",N/A,N/A,N/A,N/A,OpenStreetMap
Chayer Adda 2,Café / Coffee Shop,Café / Bakery / Dessert,Mirpur-1,"Rd No. 5, Dhaka",+880 1979-212981,N/A,11:30 AM – 11:30 PM,N/A,23.8009,90.3637,N/A,4.4,311,৳ Budget,"Tea, cold coffee, juice, budget, student fav",
Chayer Bari,Cafe,,Malibagh,,,,,,23.7523512,90.4197797,"https://www.google.com/maps?q=23.7523512,90.4197797",N/A,N/A,N/A,N/A,OpenStreetMap
Chayer Ghat,Restaurant,,Malibagh,,,,,,23.7478844,90.4266674,"https://www.google.com/maps?q=23.7478844,90.4266674",N/A,N/A,N/A,N/A,OpenStreetMap
Check In Restaurant,Restaurant,regional,Elephant Road,,,,09:00-23:00,,23.7375199,90.3873867,"https://www.google.com/maps?q=23.7375199,90.3873867",N/A,N/A,N/A,N/A,OpenStreetMap
Cheers Cafe,Cafe,,Other Dhaka,"ANZ Square,53, Beside Jigatola Bus Stand",01967073322,,10:30-23:30,,23.7395835,90.3756445,"https://www.google.com/maps?q=23.7395835,90.3756445",N/A,N/A,N/A,N/A,OpenStreetMap
Cheese Blast,Cafe,,Mirpur,1/3,,,,,23.8082411,90.3723318,"https://www.google.com/maps?q=23.8082411,90.3723318",N/A,N/A,N/A,N/A,OpenStreetMap
Cheese n Chicken,Pizza Restaurant,Western / Fast Food,Sector 14,"Sect:14, Road No.12, Johura Market",+880 1634-777318,N/A,11:00 AM – 11:00 PM,N/A,23.855,90.404,N/A,4.2,172,,"Chicken chap, chicken roll, pizza, fast food, budget",
Cheesy & Juicy,Restaurant,,Malibagh,,,,,,23.7475817,90.4292492,"https://www.google.com/maps?q=23.7475817,90.4292492",N/A,N/A,N/A,N/A,OpenStreetMap
Cheez,Restaurant,pizza,Other Dhaka,"4, নিউ বেইলি রোড",,,,,23.7419788,90.4084846,"https://www.google.com/maps?q=23.7419788,90.4084846",N/A,N/A,N/A,N/A,OpenStreetMap
Cheez bd,Restaurant,,Mirpur,,,,,,23.8094177,90.3676906,"https://www.google.com/maps?q=23.8094177,90.3676906",N/A,N/A,N/A,N/A,OpenStreetMap
Chef Mate Lounge,Food Court,,Hatirpool,ধানমণ্ডি ২,,,,,23.7389774,90.3787366,"https://www.google.com/maps?q=23.7389774,90.3787366",N/A,N/A,N/A,N/A,OpenStreetMap
Chef's Rooftop,Restaurant,,Mohammadpur,,,,,,23.7895741,90.3758851,"https://www.google.com/maps?q=23.7895741,90.3758851",N/A,N/A,N/A,N/A,OpenStreetMap
Chef's Special,Casual Dining,Turkish / Middle Eastern,Sector 11,1/B Gareeb-E-Nawz Road,+880 1755-601407,N/A,11:00 AM – 11:00 PM,N/A,23.855,90.404,N/A,3.9,36,,"Multi-cuisine, seafood chowder, lemon fish, crab, shawarma",
Chef's Table Courtside,Restaurant,pizza;burger;coffee_shop;italian;chinese;sandwich;japanese;regional;mexican;kebab;international,Baridhara,,+8801914001497,,Mo-Su 09:00-21:00,,23.800311,90.4547681,"https://www.google.com/maps?q=23.800311,90.4547681",N/A,N/A,N/A,N/A,OpenStreetMap
Chef's fast food,Restaurant,,Mohammadpur,,,,,,23.7845247,90.3677448,"https://www.google.com/maps?q=23.7845247,90.3677448",N/A,N/A,N/A,N/A,OpenStreetMap
Chef's table,Fast Food,,Gulshan,,,,,,23.7770334,90.4161578,"https://www.google.com/maps?q=23.7770334,90.4161578",N/A,N/A,N/A,N/A,OpenStreetMap
ChefMate Lounge,Food Court,,Hatirpool,"32, ধানমণ্ডি ২",,,Mo-Su 11:00-02:00,,23.7389774,90.3787366,"https://www.google.com/maps?q=23.7389774,90.3787366",N/A,N/A,N/A,N/A,OpenStreetMap
Chefographer,Cafe,,Pallabi,,,,,,23.8354795,90.3767018,"https://www.google.com/maps?q=23.8354795,90.3767018",N/A,N/A,N/A,N/A,OpenStreetMap
Chervil,Cafe,,Rampura,,,,,,23.7680059,90.4252756,"https://www.google.com/maps?q=23.7680059,90.4252756",N/A,N/A,N/A,N/A,OpenStreetMap
Chetzy,Cafe,,Dhanmondi,Mirpur Road,,,Mo-Su 09:00-22:00,,23.7534484,90.3767015,"https://www.google.com/maps?q=23.7534484,90.3767015",N/A,N/A,N/A,N/A,OpenStreetMap
Chicken Buzz BD,Fast Food,chicken,Mirpur,,,,,,23.7969926,90.3652493,"https://www.google.com/maps?q=23.7969926,90.3652493",N/A,N/A,N/A,N/A,OpenStreetMap
Chicken Garage,Restaurant,,Uttara,,,,,,23.8805949,90.4090706,"https://www.google.com/maps?q=23.8805949,90.4090706",N/A,N/A,N/A,N/A,OpenStreetMap
Chicken Lover,Restaurant,,Mirpur,,,,,,23.8117559,90.3696823,"https://www.google.com/maps?q=23.8117559,90.3696823",N/A,N/A,N/A,N/A,OpenStreetMap
Chicken Street,Cafe,,Mohammadpur,,,,,,23.7648073,90.3585349,"https://www.google.com/maps?q=23.7648073,90.3585349",N/A,N/A,N/A,N/A,OpenStreetMap
Chilekotha,Restaurant,,Banani,,,,,,23.7901234,90.4011753,"https://www.google.com/maps?q=23.7901234,90.4011753",N/A,N/A,N/A,N/A,OpenStreetMap
Chili's,Restaurant,tex-mex,Gulshan,,,,,,23.7901755,90.4103289,"https://www.google.com/maps?q=23.7901755,90.4103289",N/A,N/A,N/A,N/A,OpenStreetMap
Chili's,Restaurant,tex-mex,Dhanmondi,মিরপুর রোড,,,,,23.7520734,90.377498,"https://www.google.com/maps?q=23.7520734,90.377498",N/A,N/A,N/A,N/A,OpenStreetMap
Chili's Banasree,Restaurant,,Rampura,,,,,,23.7661769,90.4259368,"https://www.google.com/maps?q=23.7661769,90.4259368",N/A,N/A,N/A,N/A,OpenStreetMap
Chilis Restaurant,Casual Dining,Chinese / Thai / Asian Fusion,Mirpur-12,"Rd No. 12, Dhaka 1216",+880 1844-454056,N/A,12:00 PM – 11:00 PM,N/A,23.8272,90.3637,N/A,3.9,631,,"Chinese, Thai, sizzling, family dining",
Chilis thai and chinese restaurant,Restaurant,,Mohammadpur,,,,,,23.7673373,90.3583498,"https://www.google.com/maps?q=23.7673373,90.3583498",N/A,N/A,N/A,N/A,OpenStreetMap
Chill Out,Restaurant,,Mohammadpur,,,,,,23.7863208,90.3670363,"https://www.google.com/maps?q=23.7863208,90.3670363",N/A,N/A,N/A,N/A,OpenStreetMap
Chillers,Cafe,coffee_shop,Pallabi,,,,Mo-Su 17:00-22:00,,23.8365005,90.3762424,"https://www.google.com/maps?q=23.8365005,90.3762424",N/A,N/A,N/A,N/A,OpenStreetMap
Chilling Thai and Chinese restaurant,Restaurant,,Other Dhaka,"4, Road 4",+8801799429803,,,,23.8590696,90.401863,"https://www.google.com/maps?q=23.8590696,90.401863",N/A,N/A,N/A,N/A,OpenStreetMap
Chillox,Restaurant,burger,Other Dhaka,Jigatola Main Road,,,,,23.739389,90.3752158,"https://www.google.com/maps?q=23.739389,90.3752158",N/A,N/A,N/A,N/A,OpenStreetMap
Chillox,Fast Food,burger,Gulshan,,+8801626509670,,Sa-Th 10:00-22:00,,23.7799487,90.4068842,"https://www.google.com/maps?q=23.7799487,90.4068842",N/A,N/A,N/A,N/A,OpenStreetMap
Chillox Aftabnagar,Restaurant,,Rampura,,,,,,23.7688492,90.424164,"https://www.google.com/maps?q=23.7688492,90.424164",N/A,N/A,N/A,N/A,OpenStreetMap
Chillox Banani,Restaurant,,Gulshan,,,,,,23.790116,90.4080584,"https://www.google.com/maps?q=23.790116,90.4080584",N/A,N/A,N/A,N/A,OpenStreetMap
China Kitchen,Restaurant,,Shahbagh,কাঁটাবন রোড,,,,,23.7375296,90.3900238,"https://www.google.com/maps?q=23.7375296,90.3900238",N/A,N/A,N/A,N/A,OpenStreetMap
China Sizzling,Restaurant,chinese,Malibagh,শহীদ বাকি সড়ক,,,,,23.7524406,90.4204805,"https://www.google.com/maps?q=23.7524406,90.4204805",N/A,N/A,N/A,N/A,OpenStreetMap
Chinese World,Restaurant,,Malibagh,,,,,,23.7515159,90.4230338,"https://www.google.com/maps?q=23.7515159,90.4230338",N/A,N/A,N/A,N/A,OpenStreetMap
Chittagong Bull,Restaurant,,Malibagh,,,,,,23.751795,90.4222396,"https://www.google.com/maps?q=23.751795,90.4222396",N/A,N/A,N/A,N/A,OpenStreetMap
Chittagong Hotel& Restaurant,Restaurant,indian,Other Dhaka,,,,,,23.7343427,90.4080833,"https://www.google.com/maps?q=23.7343427,90.4080833",N/A,N/A,N/A,N/A,OpenStreetMap
Chourangi Hotel,Restaurant,,Old Dhaka,"47, North Brook Hall Road",,,,,23.7062633,90.4124774,"https://www.google.com/maps?q=23.7062633,90.4124774",N/A,N/A,N/A,N/A,OpenStreetMap
Churangi Kebab Ghor,Restaurant,,Mirpur,,,,,,23.8064887,90.3534094,"https://www.google.com/maps?q=23.8064887,90.3534094",N/A,N/A,N/A,N/A,OpenStreetMap
Churoy Bath Resturant,Restaurant,regional,Elephant Road,,,,09:00-22:00,,23.7359042,90.3857027,"https://www.google.com/maps?q=23.7359042,90.3857027",N/A,N/A,N/A,N/A,OpenStreetMap
Churuivati,Restaurant,,Elephant Road,,,,,,23.7353508,90.3852606,"https://www.google.com/maps?q=23.7353508,90.3852606",N/A,N/A,N/A,N/A,OpenStreetMap
Cibus Box,Restaurant,,Malibagh,,,,,,23.7477701,90.4269111,"https://www.google.com/maps?q=23.7477701,90.4269111",N/A,N/A,N/A,N/A,OpenStreetMap
Cielo Rooftop,Rooftop Restaurant,Thai,Gulshan 1,"35 Gulshan Ave, 17th Floor",+880 1616-070808,N/A,11:00 AM – 12:00 AM,N/A,,,N/A,4.1,380,,"17th floor rooftop, Thai menu, Hatirjheel lake view, BBQ & peri peri platters",
Cinnamon,Restaurant,,Gulshan,Bir Uttam A. K. Khandakar Road,,,,,23.7802773,90.4067739,"https://www.google.com/maps?q=23.7802773,90.4067739",N/A,N/A,N/A,N/A,OpenStreetMap
City Cafe Bangla Hotel Kabab and Biriyani House,Restaurant,,Mirpur,,,,,,23.8171124,90.3560952,"https://www.google.com/maps?q=23.8171124,90.3560952",N/A,N/A,N/A,N/A,OpenStreetMap
City Mahal Deshi Khabar,Restaurant,,Mirpur,,,,Mo-Su 11:30-23:00,,23.799605,90.3553941,"https://www.google.com/maps?q=23.799605,90.3553941",N/A,N/A,N/A,N/A,OpenStreetMap
City Park,Restaurant,,Unknown,"8, Block # C, Ring Road & Tajmahal Road",,,,,,,,N/A,N/A,N/A,N/A,OpenStreetMap
City hotel and restaurant,Restaurant,,Other Dhaka,"1, chamelibagh",,,10:00-23:00,,23.7429559,90.4133908,"https://www.google.com/maps?q=23.7429559,90.4133908",N/A,N/A,N/A,N/A,OpenStreetMap
Classic Food ক্লাসিক ফুড,Restaurant,,Uttara,,,,,,23.8860777,90.399273,"https://www.google.com/maps?q=23.8860777,90.399273",N/A,N/A,N/A,N/A,OpenStreetMap
Classy Dine,Restaurant,burger;sandwich;grill;ice_cream;cake;asian;coffee_shop;noodles;chicken;diner;fish_and_chips;curry;indian;fish;tea;seafood;chinese;fine_dining;kebab,Gulshan,"1/B, Road 5",+88028834177,http://www.classydine.com.bd,Mo-Su 12:00-22:00,,23.7769638,90.4158211,"https://www.google.com/maps?q=23.7769638,90.4158211",N/A,N/A,N/A,N/A,OpenStreetMap
Clinic Cafe,Restaurant,international,Dhanmondi,"67 (New), Satmasjid Road",,,,,23.7495125,90.3687158,"https://www.google.com/maps?q=23.7495125,90.3687158",N/A,N/A,N/A,N/A,OpenStreetMap
Clinton's Dine,Restaurant,,Mirpur,,,,,,23.8062294,90.3525667,"https://www.google.com/maps?q=23.8062294,90.3525667",N/A,N/A,N/A,N/A,OpenStreetMap
Cloud Coffee,Cafe,,Mohammadpur,,,,,,23.7859051,90.3774544,"https://www.google.com/maps?q=23.7859051,90.3774544",N/A,N/A,N/A,N/A,OpenStreetMap
Coal & Coffee,Café / Coffee Shop,Western / Grill & Steak,Sector 11,"House 60, Sonargaon Janapath Rd",+880 1720-440445,N/A,11:00 AM – 12:00 AM,N/A,23.855,90.404,N/A,4.4,1199,৳৳ Mid-range,"Coffee, BBQ chicken platter, bolognese, rooftop connected",
Coal & Coffee Banani,Restaurant,,Gulshan,,,,,,23.7935699,90.4067211,"https://www.google.com/maps?q=23.7935699,90.4067211",N/A,N/A,N/A,N/A,OpenStreetMap
Cocktails,Cafe,,Hazaribagh,Road 7A,,,,,23.7439433,90.3745152,"https://www.google.com/maps?q=23.7439433,90.3745152",N/A,N/A,N/A,N/A,OpenStreetMap
Coffee Brew Dhaka,Café / Coffee Shop,Café / Bakery / Dessert,Gulshan 2,"House#134, Rd 12",+880 1728-226139,N/A,12:00 PM – 6:00 AM,N/A,,,N/A,4.8,17,,"Iced mocha, chocolate brewer, cozy quiet café, late night",
Coffee Corner,Cafe,,Other Dhaka,,,,,,23.7339493,90.4014954,"https://www.google.com/maps?q=23.7339493,90.4014954",N/A,N/A,N/A,N/A,OpenStreetMap
Coffee Design,Cafe,,Mirpur,,,,,,23.8096848,90.3697886,"https://www.google.com/maps?q=23.8096848,90.3697886",N/A,N/A,N/A,N/A,OpenStreetMap
Coffee Express,Cafe,,Mirpur,Road 23,,,,,23.8170377,90.3539708,"https://www.google.com/maps?q=23.8170377,90.3539708",N/A,N/A,N/A,N/A,OpenStreetMap
Coffee Expresso,Cafe,,Baridhara,মাদানী এভিনিউ,,,,,23.8003147,90.4518935,"https://www.google.com/maps?q=23.8003147,90.4518935",N/A,N/A,N/A,N/A,OpenStreetMap
Coffee House,Café / Coffee Shop,Café / Bakery / Dessert,Mirpur-10,"House-1, Road-11/2, Block-B, Mirpur 10",+880 1958-479675,N/A,9:00 AM – 11:00 PM,N/A,23.8101,90.3637,N/A,5,2,,"Hidden gem coffee shop, 80s-90s nostalgia",
Coffee House & Food Corner কফি হাউস এন্ড ফুড কর্ণার,Restaurant,,Uttara,,,,,,23.8861779,90.3994113,"https://www.google.com/maps?q=23.8861779,90.3994113",N/A,N/A,N/A,N/A,OpenStreetMap
Coffee Lime,Fast Food,juice,Other Dhaka,,,,,,23.7382856,90.3757628,"https://www.google.com/maps?q=23.7382856,90.3757628",N/A,N/A,N/A,N/A,OpenStreetMap
Coffee World,Cafe,coffee_shop,Dhanmondi,,,,,,23.753283,90.3695136,"https://www.google.com/maps?q=23.753283,90.3695136",N/A,N/A,N/A,N/A,OpenStreetMap
Coffee World Gulshan,Café / Coffee Shop,Café / Bakery / Dessert,Gulshan 1,"Casablanca, 114 Gulshan Ave",+880 1817-141248,N/A,8:30 AM – 1:00 AM,N/A,,,N/A,4.7,112,,"Coffee, beetroot soup, healthy food, friendly staff, beside Delifrance",
Coffee and Burger Shop,Fast Food,,Gulshan,,,,,,23.7916034,90.4224871,"https://www.google.com/maps?q=23.7916034,90.4224871",N/A,N/A,N/A,N/A,OpenStreetMap
Coffee corner Chinese restaurant,Restaurant,,Eskaton,"A/1, Siddesori circular Road",+8801795095626,,10:30-22:30,,23.7454864,90.4121614,"https://www.google.com/maps?q=23.7454864,90.4121614",N/A,N/A,N/A,N/A,OpenStreetMap
Coffeelicious Coffee Uttara,Bakery / Pastry Shop,Western / Fast Food,Sector 7,"3rd Floor, Vivek Heights, House-01, Road-18",+880 1730-057139,N/A,12:00 PM – 11:30 PM,N/A,23.869,90.393,N/A,4.1,2672,৳৳ Mid-range,"Coffee, burger, fajita, affogato, long-standing café chain",
Coffeelicious coffee,Restaurant,,Other Dhaka,"1, natok Sharani",+8801615998996,,10:00-22:00,,23.7422338,90.4076085,"https://www.google.com/maps?q=23.7422338,90.4076085",N/A,N/A,N/A,N/A,OpenStreetMap
Cold Stone Creamery,Restaurant,ice_cream,Gulshan,Bir Uttam Mir Shawkat Sarak (Gulshan Ave),,,,,23.7777243,90.4163813,"https://www.google.com/maps?q=23.7777243,90.4163813",N/A,N/A,N/A,N/A,OpenStreetMap
College Canteen,Cafe,,Unknown,,,,,,,,,N/A,N/A,N/A,N/A,OpenStreetMap
Combe Restaurant,Restaurant,chinese,Uttara,"11, Road 6",+8801724965508,,,,23.8604117,90.4009211,"https://www.google.com/maps?q=23.8604117,90.4009211",N/A,N/A,N/A,N/A,OpenStreetMap
Comic Cafe,Restaurant,regional;pizza;burger;pasta;indian;steak_house;chinese,Dhanmondi,"67 (New), Satmasjid Road",,,,,23.749533,90.368793,"https://www.google.com/maps?q=23.749533,90.368793",N/A,N/A,N/A,N/A,OpenStreetMap
Comic Cafe,Restaurant,international,Malibagh,শহীদ বাকি সড়ক,,,,,23.7519375,90.421537,"https://www.google.com/maps?q=23.7519375,90.421537",N/A,N/A,N/A,N/A,OpenStreetMap
Comilla Restaurant,Restaurant,,Mohammadpur,,,,,,23.7592796,90.3623068,"https://www.google.com/maps?q=23.7592796,90.3623068",N/A,N/A,N/A,N/A,OpenStreetMap
Cookers 7,Cafe,,Kalabagan,,,,,,23.7511554,90.3926177,"https://www.google.com/maps?q=23.7511554,90.3926177",N/A,N/A,N/A,N/A,OpenStreetMap
Cookspace,Restaurant,,Unknown,"79, Gulshan Avenue",,https://cookspace.co/,,,,,,N/A,N/A,N/A,N/A,OpenStreetMap
Cooper's,Bakery / Pastry Shop,Café / Bakery / Dessert,Mirpur-10,"Section 6, Dhaka 1216",+880 1709-631166,N/A,7:00 AM – 11:00 PM,N/A,23.8101,90.3637,N/A,4.3,104,,"Cakes, cookies, brownies, pastry, fast food",
Cooper's,Bakery / Pastry Shop,Café / Bakery / Dessert,Mirpur-12,"Mirpur-12, Dhaka 1216",+880 1321-150637,N/A,7:00 AM – 11:00 PM,N/A,23.8272,90.3637,N/A,4.3,71,৳৳ Mid-range,"Cakes, pastry, bakery items, small seating",
Cooper's,Bakery / Pastry Shop,Western / Fast Food,Pallabi / Mirpur-11.5,"Begum Rokeya Ave, Dhaka 1216",+880 1730-009518,N/A,7:00 AM – 11:30 PM,N/A,23.8101,90.3637,N/A,4.3,1238,৳৳ Mid-range,"Cakes, pastry, tiramisu, sandwiches",
Cooper's Bakery,Bakery / Pastry Shop,Café / Bakery / Dessert,Mirpur-1,"Zoo Road, Near Sony Cinema Hall",+880 1730-009510,N/A,7:00 AM – 10:30 PM,N/A,23.8009,90.3637,N/A,4.3,413,৳৳ Mid-range,"Cakes, pastry, doughnuts, cookies, bread",
Cooper's Bakery,Bakery / Pastry Shop,Café / Bakery / Dessert,Sector 11,Sonargaon Janapath Rd (House Building),+880 1730-357889,N/A,7:00 AM – 10:30 PM,N/A,23.855,90.404,N/A,4.3,1676,৳৳ Mid-range,"Main Cooper's outlet, cakes, pastry, coffee, doughnuts",
Cooper's Gulshan 2,Bakery / Dessert Shop,Western / Grill & Steak,Gulshan 2,"Road 46, Dhaka 1212",+880 1729-076913,N/A,7:30 AM – 10:30 PM,N/A,,,N/A,4.3,2572,৳৳ Mid-range,"Premium bakery chain, cakes, pastry, sandwiches, BBQ chicken wrap",
Coopers,Cafe,pastry,Dhanmondi,,,,,,23.7465593,90.370823,"https://www.google.com/maps?q=23.7465593,90.370823",N/A,N/A,N/A,N/A,OpenStreetMap
Cp five star,Restaurant,,Other Dhaka,"87, New circular Road",,,,,23.7449451,90.4128554,"https://www.google.com/maps?q=23.7449451,90.4128554",N/A,N/A,N/A,N/A,OpenStreetMap
Cranberry The Dalicatessen,Fast Food,,Elephant Road,"4/14, Shahid Janani Jahanara Imam Sarani",,,10:00-20:00,,23.7347124,90.3849391,"https://www.google.com/maps?q=23.7347124,90.3849391",N/A,N/A,N/A,N/A,OpenStreetMap
Crepe Au Lait,Restaurant,french,Cantonment,,,,,,23.8035869,90.4093106,"https://www.google.com/maps?q=23.8035869,90.4093106",N/A,N/A,N/A,N/A,OpenStreetMap
Cricketers’ Kitchen,Restaurant,,Niketan,,,,,,23.773482,90.4172051,"https://www.google.com/maps?q=23.773482,90.4172051",N/A,N/A,N/A,N/A,OpenStreetMap
Crimson Cup,Restaurant,,Mirpur,,,,,,23.8183663,90.3657313,"https://www.google.com/maps?q=23.8183663,90.3657313",N/A,N/A,N/A,N/A,OpenStreetMap
Crimson cup coffee shop,Cafe,american;breakfast;cake;coffee_shop;donut;grill;mexican;sausage;sandwich;tea,Dhanmondi,Road 27 (New 16),,,,,23.7529055,90.3692795,"https://www.google.com/maps?q=23.7529055,90.3692795",N/A,N/A,N/A,N/A,OpenStreetMap
Crispy restaurant,Restaurant,,Other Dhaka,,,,,,23.6829737,90.4228315,"https://www.google.com/maps?q=23.6829737,90.4228315",N/A,N/A,N/A,N/A,OpenStreetMap
Crown Cafe and Restaurant,Restaurant,regional,Other Dhaka,,,,,,23.853897,90.4034667,"https://www.google.com/maps?q=23.853897,90.4034667",N/A,N/A,N/A,N/A,OpenStreetMap
Crunch Restaurant,Casual Dining,Chinese / Thai / Asian Fusion,Mirpur-2,"Hyperion Ahsan, 5 Rd 1, Dhaka 1216",,N/A,,N/A,23.804,90.3637,N/A,4,67,,"Meatbox, pasta, ramen, burger, seafood rice",
Crush Momo Uttara,Restaurant,chinese,Uttara,"04, গাউসুল আজম এভিনিউ",+8801972-876429,https://ieatery.com.bd/dhaka/uttara/crush-momo-uttara,Mo-Sa 08:00-18:00,,23.8696101,90.3917276,"https://www.google.com/maps?q=23.8696101,90.3917276",N/A,N/A,N/A,N/A,OpenStreetMap
Crush Station,Restaurant,,Malibagh,,,,,,23.7508839,90.4242156,"https://www.google.com/maps?q=23.7508839,90.4242156",N/A,N/A,N/A,N/A,OpenStreetMap
Crust and Beans,Casual Dining,Chinese / Thai / Asian Fusion,Mirpur-12,"Safura Tower, Road-7, Mirpur-12",+880 1406-193398,N/A,12:00 PM – 11:00 PM,N/A,23.8272,90.3637,N/A,4.1,141,,"Nasi goreng, pasta, steak, wings, café vibe",
Cubic Cafe,Cafe,,Mughda,,,,,,23.7401468,90.4278906,"https://www.google.com/maps?q=23.7401468,90.4278906",N/A,N/A,N/A,N/A,OpenStreetMap
Cup of Joy,Restaurant,,Pallabi,,,,,,23.8229093,90.3656868,"https://www.google.com/maps?q=23.8229093,90.3656868",N/A,N/A,N/A,N/A,OpenStreetMap
Cuppa Coffee Lounge,Restaurant,,Gulshan,"Rahima Bhaban, 11, Gulshan-2 Circle",,,,,23.7943066,90.4141637,"https://www.google.com/maps?q=23.7943066,90.4141637",N/A,N/A,N/A,N/A,OpenStreetMap
D'Cups Dine,Restaurant,,Mirpur,,,,,,23.8024126,90.3533609,"https://www.google.com/maps?q=23.8024126,90.3533609",N/A,N/A,N/A,N/A,OpenStreetMap
DFC Fast Food,Fast Food,asian,Other Dhaka,,,,,,23.6928598,90.4510634,"https://www.google.com/maps?q=23.6928598,90.4510634",N/A,N/A,N/A,N/A,OpenStreetMap
DSS Cafe and Restaurant,Restaurant,,Mohammadpur,Begum Rokeya Sharani,,,,,23.7896633,90.3757495,"https://www.google.com/maps?q=23.7896633,90.3757495",N/A,N/A,N/A,N/A,OpenStreetMap
DUCSU Cafeteria,Cafe,,Elephant Road,,,,Su-Th 08:00-20:00,,23.7340162,90.3937854,"https://www.google.com/maps?q=23.7340162,90.3937854",N/A,N/A,N/A,N/A,OpenStreetMap
"Dadur Dokan, kabi sufia kamal hall",Restaurant,,Other Dhaka,,,,,,23.7261424,90.4050109,"https://www.google.com/maps?q=23.7261424,90.4050109",N/A,N/A,N/A,N/A,OpenStreetMap
Daily Dose Kitchen,Restaurant,,Pallabi,,+8801759232965,,Mo-Su 11:00-23:00,,23.8210524,90.3654309,"https://www.google.com/maps?q=23.8210524,90.3654309",N/A,N/A,N/A,N/A,OpenStreetMap
Daily Fried Chicken Store,Fast Food,,Gulshan,,,,,,23.7766867,90.4265468,"https://www.google.com/maps?q=23.7766867,90.4265468",N/A,N/A,N/A,N/A,OpenStreetMap
Daniyal Food & Cafe,Restaurant,chinese,Mohammadpur,,,,,,23.7796053,90.3708241,"https://www.google.com/maps?q=23.7796053,90.3708241",N/A,N/A,N/A,N/A,OpenStreetMap
Dao Xiang Cun,Restaurant,chinese,Gulshan,,,,,,23.7923986,90.4171521,"https://www.google.com/maps?q=23.7923986,90.4171521",N/A,N/A,N/A,N/A,OpenStreetMap
Darjeeling Momo Station,Fast Food,,Mirpur,,,,,,23.8041241,90.3594633,"https://www.google.com/maps?q=23.8041241,90.3594633",N/A,N/A,N/A,N/A,OpenStreetMap
Dark,Restaurant,,Dhanmondi,Satmasjid Rd,,,Mo-Su 11:00-23:00,,23.7459582,90.371236,"https://www.google.com/maps?q=23.7459582,90.371236",N/A,N/A,N/A,N/A,OpenStreetMap
Darling Point Restaurant,Restaurant,,Hazaribagh,,,,,,23.7388237,90.3741103,"https://www.google.com/maps?q=23.7388237,90.3741103",N/A,N/A,N/A,N/A,OpenStreetMap
Daruchini Food Village,Restaurant,,Pallabi,,,,,,23.8369318,90.3765381,"https://www.google.com/maps?q=23.8369318,90.3765381",N/A,N/A,N/A,N/A,OpenStreetMap
Dastarkhana,Casual Dining,Bengali / Mughlai,Mirpur-10,"House-41, Avenue 5",+880 1873-838883,N/A,6:00 AM – 11:30 PM,N/A,23.8101,90.3637,N/A,4.2,2877,৳৳ Mid-range,"Bengali, Mughlai, kebab, breakfast, tawa fry",
Dawat Restaurant,Restaurant,,Gulshan,,,,,,23.7860218,90.4257504,"https://www.google.com/maps?q=23.7860218,90.4257504",N/A,N/A,N/A,N/A,OpenStreetMap
De Badsha Restaurants,Restaurant,,Motijheel,"28/1/B, Circular Road",,,Mo-Su 07:00-23:00,,23.7304695,90.4161542,"https://www.google.com/maps?q=23.7304695,90.4161542",N/A,N/A,N/A,N/A,OpenStreetMap
De Buraq,Restaurant,,Mirpur,,,,,,23.8134688,90.3699345,"https://www.google.com/maps?q=23.8134688,90.3699345",N/A,N/A,N/A,N/A,OpenStreetMap
Decent Cafe,Cafe,,Motijheel,"144, Motijheel C/A",,,"Mo-We, Fr-Su 08:00-21:00",,23.7301736,90.4167462,"https://www.google.com/maps?q=23.7301736,90.4167462",N/A,N/A,N/A,N/A,OpenStreetMap
Delhi Beryani,Restaurant,,Bashundhara,,,,,,23.811938,90.4234678,"https://www.google.com/maps?q=23.811938,90.4234678",N/A,N/A,N/A,N/A,OpenStreetMap
Delhi Darbar,Fast Food,,Malibagh,Shahid Baki Sarak,,,,,23.7521488,90.4169021,"https://www.google.com/maps?q=23.7521488,90.4169021",N/A,N/A,N/A,N/A,OpenStreetMap
Delhi Darbar,Restaurant,,Mohammadpur,,,,,,23.7675988,90.3582998,"https://www.google.com/maps?q=23.7675988,90.3582998",N/A,N/A,N/A,N/A,OpenStreetMap
Delhi Darbar,Restaurant,international;indian,Dhanmondi,"67 (New), Satmasjid Road",,,,,23.7495366,90.3687022,"https://www.google.com/maps?q=23.7495366,90.3687022",N/A,N/A,N/A,N/A,OpenStreetMap
Delhi Sweets,Fast Food,,Kafrul,,,,,,23.7938827,90.3878112,"https://www.google.com/maps?q=23.7938827,90.3878112",N/A,N/A,N/A,N/A,OpenStreetMap
Delic Dish,Restaurant,,Rampura,,,,,,23.7617162,90.4303531,"https://www.google.com/maps?q=23.7617162,90.4303531",N/A,N/A,N/A,N/A,OpenStreetMap
