Name,Type,Cuisine,Area,Address,Phone,Website,Opening Hours,OSM Rating,Latitude,Longitude,Google Maps
Heshel,Restaurant,chinese;indian;chicken;ice_cream;pasta;dessert;noodle;local,Pallabi,N/A,N/A,N/A,N/A,5.0,23.8234655,90.3539931,"https://www.google.com/maps?q=23.8234655,90.3539931"
Ramly The Live Kitchen,Restaurant,regional,Shahbagh,"168 S Kamruzzaman Sharani Rd, Dhaka 1205, Bangladesh, S Kamruzzaman Sharani Rd,",N/A,N/A,Mo-Fr 11:00-23:30,4.0,23.7413893,90.3910146,"https://www.google.com/maps?q=23.7413893,90.3910146"
KFC,Restaurant,american,Dhanmondi,"Plaza Central (1st Floor), S Kamruzzaman, New elephant road",N/A,N/A,11:00-23:00,4.0,23.7409356,90.3899137,"https://www.google.com/maps?q=23.7409356,90.3899137"
Waffle Time,Restaurant,regional,Dhanmondi,"Plaza Central (1st Floor), S Kamruzzaman, New elephant road",+880 1540-065404,N/A,11:00-24:00,4.0,23.7409356,90.3899137,"https://www.google.com/maps?q=23.7409356,90.3899137"
Pizza Hut,Restaurant,pizza,Dhanmondi,"Plaza Central (1st Floor), S Kamruzzaman, New elephant road",+8809613-999666,N/A,11:00-23:00,4.0,23.7409356,90.3899137,"https://www.google.com/maps?q=23.7409356,90.3899137"
স্টার কাবাব এন্ড রেস্টুরেন্ট,Restaurant,N/A,Elephant Road,N/A,N/A,N/A,Sa-Fr 09:00-23:00,3.0,23.7373581,90.3868642,"https://www.google.com/maps?q=23.7373581,90.3868642"
Hanif Biriyani,Restaurant,regional,Shahbagh,"114, Central Road",+880 1722-096458,N/A,N/A,3.0,23.7419544,90.3904007,"https://www.google.com/maps?q=23.7419544,90.3904007"
Kachchi Wala,Restaurant,regional,Dhanmondi,"Prince Tower,, S Kamruzzaman Sharani Rd, Dhaka 1205",+880 1776-162276,N/A,12:00-10:30,3.0,23.7402502,90.3893478,"https://www.google.com/maps?q=23.7402502,90.3893478"
খাবারের হোটেল,Restaurant,regional,Shahbagh,"198, Hatirpool",N/A,N/A,Always,2.0,23.7400616,90.3912953,"https://www.google.com/maps?q=23.7400616,90.3912953"
Al Helal Restora,Restaurant,asian,Mohammadpur,N/A,N/A,N/A,sunrise-sunset,1.0,23.7784082,90.3769701,"https://www.google.com/maps?q=23.7784082,90.3769701"
PITZA Rooftop- Pizza Restaurant & Coffee Bar,Restaurant,pizza,Unknown,"24, সড়ক ১০বি",008801401474892,Menu.Pitzaslice.com,N/A,N/A,,,N/A
Jolshiri Restaurant,Restaurant,N/A,Unknown,N/A,N/A,N/A,N/A,N/A,,,N/A
Love Forest Restaurant,Restaurant,N/A,Unknown,N/A,N/A,N/A,N/A,N/A,,,N/A
নিরিবিলি রেস্টুরেন্ট,Restaurant,N/A,Unknown,N/A,N/A,N/A,N/A,N/A,,,N/A
Lake Valley,Restaurant,N/A,Unknown,N/A,N/A,N/A,N/A,N/A,,,N/A
Vapor World,Cafe,N/A,Unknown,"61, সাতমসজিদ রোড, ANAM RANGS PLAZA, Level: 3, Road No. 6/A,",+8801729290000,https://vaporworld.com.bd/,N/A,N/A,,,N/A
Dough Diaries,Cafe,N/A,Unknown,N/A,N/A,N/A,N/A,N/A,,,N/A
Terracotta Tales,Restaurant,N/A,Unknown,N/A,N/A,N/A,N/A,N/A,,,N/A
Platinum Park,Restaurant,N/A,Unknown,N/A,N/A,N/A,N/A,N/A,,,N/A
Outdoor Café,Cafe,N/A,Unknown,N/A,N/A,N/A,N/A,N/A,,,N/A
Jatner Khabar,Restaurant,regional,Unknown,N/A,N/A,N/A,N/A,N/A,,,N/A
Kiyangshi Thai & Chinese Restaurant,Restaurant,N/A,Mirpur,N/A,N/A,N/A,N/A,N/A,23.7949044,90.3531984,"https://www.google.com/maps?q=23.7949044,90.3531984"
Jolly Bee,Restaurant,N/A,Other Dhaka,N/A,N/A,N/A,N/A,N/A,23.741751,90.409667,"https://www.google.com/maps?q=23.741751,90.409667"
KFC,Fast Food,chicken,Other Dhaka,N/A,N/A,N/A,N/A,N/A,23.7419541,90.4099536,"https://www.google.com/maps?q=23.7419541,90.4099536"
KFC & Pizza Hut,Fast Food,N/A,Uttara,"13, Sonargaon Janapath",N/A,N/A,N/A,N/A,23.8741444,90.3919405,"https://www.google.com/maps?q=23.8741444,90.3919405"
Kabab Factory,Restaurant,kebab,Uttara,N/A,N/A,N/A,N/A,N/A,23.8680768,90.3939991,"https://www.google.com/maps?q=23.8680768,90.3939991"
Bachelor Point,Cafe,N/A,Hazaribagh,N/A,N/A,N/A,N/A,N/A,23.7418435,90.3744178,"https://www.google.com/maps?q=23.7418435,90.3744178"
Movenpick Icecream,Cafe,N/A,Uttara,N/A,N/A,N/A,10:00-24:00,N/A,23.8680606,90.3940426,"https://www.google.com/maps?q=23.8680606,90.3940426"
Party House,Restaurant,N/A,Motijheel,"5,Outer Circular Road,ZR Tower",+8801786365443,https://party-house-zr-tower.business.site/,Mo-Su 09:00-21:30,N/A,23.7429091,90.4162455,"https://www.google.com/maps?q=23.7429091,90.4162455"
Bailey BBQ,Fast Food,N/A,Other Dhaka,N/A,N/A,N/A,N/A,N/A,23.7418535,90.4117503,"https://www.google.com/maps?q=23.7418535,90.4117503"
BFC,Fast Food,fast_food,Other Dhaka,N/A,N/A,N/A,N/A,N/A,23.7419835,90.4117582,"https://www.google.com/maps?q=23.7419835,90.4117582"
Hok Restaurent,Restaurant,N/A,Other Dhaka,N/A,N/A,N/A,N/A,N/A,23.7415578,90.4116045,"https://www.google.com/maps?q=23.7415578,90.4116045"
Fortuna Fried Chicken,Fast Food,international,Hazaribagh,"75, Rd #5, Shatmasjid Road, Dhanmondi",N/A,http://www.ffcbd.com,N/A,N/A,23.7418201,90.3738082,"https://www.google.com/maps?q=23.7418201,90.3738082"
Sunami Restaurant,Fast Food,N/A,Hazaribagh,N/A,N/A,N/A,N/A,N/A,23.7389955,90.3747981,"https://www.google.com/maps?q=23.7389955,90.3747981"
NAGASAKI,Restaurant,japanese,Other Dhaka,"Road #6, Sector #1",+880-2-8922284,N/A,N/A,N/A,23.8566729,90.4017701,"https://www.google.com/maps?q=23.8566729,90.4017701"
Coffee World,Cafe,coffee_shop,Dhanmondi,N/A,N/A,N/A,N/A,N/A,23.753283,90.3695136,"https://www.google.com/maps?q=23.753283,90.3695136"
Bar-B-Q Tonite,Restaurant,N/A,Dhanmondi,N/A,N/A,N/A,N/A,N/A,23.7536736,90.3705514,"https://www.google.com/maps?q=23.7536736,90.3705514"
Patam Restaurant,Fast Food,N/A,Other Dhaka,N/A,N/A,N/A,09:00-22:00,N/A,23.7388066,90.3760142,"https://www.google.com/maps?q=23.7388066,90.3760142"
Mogol Party Centre,Restaurant,kebab,Pallabi,N/A,N/A,N/A,N/A,N/A,23.8243719,90.364526,"https://www.google.com/maps?q=23.8243719,90.364526"
Fuwang Foods,Fast Food,asian,Pallabi,N/A,N/A,N/A,N/A,N/A,23.8246261,90.371412,"https://www.google.com/maps?q=23.8246261,90.371412"
Crepe Au Lait,Restaurant,french,Cantonment,N/A,N/A,N/A,N/A,N/A,23.8035869,90.4093106,"https://www.google.com/maps?q=23.8035869,90.4093106"
Margarita Pizza,Restaurant,pizza,Cantonment,N/A,N/A,N/A,N/A,N/A,23.8072366,90.4171255,"https://www.google.com/maps?q=23.8072366,90.4171255"
Bellagio,Restaurant,N/A,Cantonment,N/A,N/A,N/A,N/A,N/A,23.8037146,90.4110808,"https://www.google.com/maps?q=23.8037146,90.4110808"
Just Juice,Cafe,N/A,Cantonment,N/A,N/A,N/A,N/A,N/A,23.8034046,90.4107609,"https://www.google.com/maps?q=23.8034046,90.4107609"
La Forchetta,Restaurant,pizza,Gulshan,N/A,N/A,N/A,N/A,N/A,23.7956309,90.4131293,"https://www.google.com/maps?q=23.7956309,90.4131293"
Sauron Korean Restaurant,Restaurant,N/A,Cantonment,N/A,N/A,N/A,N/A,N/A,23.8038937,90.4127948,"https://www.google.com/maps?q=23.8038937,90.4127948"
Nando's,Restaurant,chicken;portuguese,Cantonment,N/A,N/A,N/A,N/A,N/A,23.8001957,90.4118908,"https://www.google.com/maps?q=23.8001957,90.4118908"
Soi 71,Restaurant,N/A,Gulshan,N/A,N/A,N/A,N/A,N/A,23.794009,90.4121679,"https://www.google.com/maps?q=23.794009,90.4121679"
Park Town Chinese Restaurant,Restaurant,chinese;thai,Dhanmondi,N/A,N/A,N/A,N/A,N/A,23.7642938,90.3835529,"https://www.google.com/maps?q=23.7642938,90.3835529"
Shad Tehari Ghar,Restaurant,regional,Mohammadpur,N/A,N/A,N/A,N/A,N/A,23.7552688,90.3721137,"https://www.google.com/maps?q=23.7552688,90.3721137"
Popeyes,Fast Food,chicken,Old Dhaka,Municipal Rd,N/A,N/A,N/A,N/A,23.7084757,90.4146787,"https://www.google.com/maps?q=23.7084757,90.4146787"
Ahmed Burger Shop,Restaurant,"burger,Pizza,Sandwich",Old Dhaka,Municipal Rd,N/A,N/A,N/A,N/A,23.7084587,90.414738,"https://www.google.com/maps?q=23.7084587,90.414738"
C.P.,Restaurant,chicken,Old Dhaka,N/A,N/A,N/A,N/A,N/A,23.7086845,90.4147377,"https://www.google.com/maps?q=23.7086845,90.4147377"
Nazrul Islam Hall Canteen,Cafe,N/A,Old Dhaka,N/A,N/A,N/A,N/A,N/A,23.7240731,90.3933028,"https://www.google.com/maps?q=23.7240731,90.3933028"
স্টার কাবাব,Restaurant,kebab,Banani,N/A,N/A,N/A,N/A,N/A,23.7928317,90.4028845,"https://www.google.com/maps?q=23.7928317,90.4028845"
One Star Hotel and Restaurant,Restaurant,N/A,Old Dhaka,N/A,N/A,N/A,N/A,N/A,23.722385,90.4055627,"https://www.google.com/maps?q=23.722385,90.4055627"
Hazi Nanna Biriyani,Restaurant,N/A,Old Dhaka,Becharam Deory Lane,N/A,N/A,N/A,N/A,23.7160815,90.4002386,"https://www.google.com/maps?q=23.7160815,90.4002386"
Nanna Biriyani,Restaurant,N/A,Old Dhaka,N/A,N/A,N/A,N/A,N/A,23.7160982,90.4001637,"https://www.google.com/maps?q=23.7160982,90.4001637"
Punizz Kitchen,Cafe,bakery,Dhanmondi,"4/2, Road 4",N/A,N/A,N/A,N/A,23.7419967,90.3832754,"https://www.google.com/maps?q=23.7419967,90.3832754"
American Burger,Restaurant,N/A,Hazaribagh,Satmasjid Road,N/A,N/A,N/A,N/A,23.7405519,90.3749874,"https://www.google.com/maps?q=23.7405519,90.3749874"
Ulta Voot,Restaurant,N/A,Hatirpool,Dhanmondi Road 2,N/A,N/A,N/A,N/A,23.738869,90.3781474,"https://www.google.com/maps?q=23.738869,90.3781474"
Modhubon Sweets,Fast Food,"Sweets,_Yogurt_& Others",Rampura,Rampura DIT Rd,N/A,N/A,09:00-22:00,N/A,23.759547,90.4181278,"https://www.google.com/maps?q=23.759547,90.4181278"
North End Coffee Roasters AIS/D,Cafe,coffee_shop;bagel;tea,Cantonment,N/A,N/A,N/A,N/A,N/A,23.8008122,90.4188769,"https://www.google.com/maps?q=23.8008122,90.4188769"
CP Fried Chicken,Fast Food,N/A,Other Dhaka,N/A,N/A,N/A,N/A,N/A,23.7793021,90.3790285,"https://www.google.com/maps?q=23.7793021,90.3790285"
DUCSU Cafeteria,Cafe,N/A,Elephant Road,N/A,N/A,N/A,Su-Th 08:00-20:00,N/A,23.7340162,90.3937854,"https://www.google.com/maps?q=23.7340162,90.3937854"
Hall Canteen II,Cafe,regional,Elephant Road,N/A,N/A,N/A,08:30-23:00,N/A,23.7361921,90.3899867,"https://www.google.com/maps?q=23.7361921,90.3899867"
Hall Dining,Cafe,regional,Elephant Road,N/A,N/A,N/A,24/7,N/A,23.7360188,90.3899794,"https://www.google.com/maps?q=23.7360188,90.3899794"
North End Coffee Roasters,Cafe,coffee_shop;bagel;tea,Gulshan,N/A,N/A,northendcoffee.com,N/A,N/A,23.7935559,90.4241605,"https://www.google.com/maps?q=23.7935559,90.4241605"
Sky Restaurent,Restaurant,regional,Kalabagan,N/A,N/A,N/A,N/A,N/A,23.757895,90.3905091,"https://www.google.com/maps?q=23.757895,90.3905091"
Seven Hill Restaurant,Restaurant,Bangladeshi,Shahbagh,BUCR Datta road (Old Sonargon Road),N/A,N/A,N/A,N/A,23.7468258,90.3924135,"https://www.google.com/maps?q=23.7468258,90.3924135"
Cookers 7,Cafe,N/A,Kalabagan,N/A,N/A,N/A,N/A,N/A,23.7511554,90.3926177,"https://www.google.com/maps?q=23.7511554,90.3926177"
Golden Chimney,Restaurant,N/A,Shahbagh,N/A,N/A,N/A,N/A,N/A,23.7460696,90.3929849,"https://www.google.com/maps?q=23.7460696,90.3929849"
Canteen,Restaurant,regional,Shahbagh,N/A,N/A,N/A,N/A,N/A,23.7390142,90.3950787,"https://www.google.com/maps?q=23.7390142,90.3950787"
TSC Cafeteria,Cafe,regional,Other Dhaka,N/A,N/A,N/A,Su-Th 08:00-16:00,N/A,23.7314991,90.3960006,"https://www.google.com/maps?q=23.7314991,90.3960006"
Midnight Sun,Restaurant,regional,Elephant Road,N/A,N/A,N/A,"Mo-Th,Sa-Su 10:00-22:00; Fr off",N/A,23.7331215,90.3850555,"https://www.google.com/maps?q=23.7331215,90.3850555"
Marine Restora,Restaurant,N/A,Kalabagan,N/A,N/A,N/A,N/A,N/A,23.7511137,90.3926482,"https://www.google.com/maps?q=23.7511137,90.3926482"
Hotel Super Star,Restaurant,N/A,Kalabagan,N/A,N/A,N/A,N/A,N/A,23.7532207,90.3917946,"https://www.google.com/maps?q=23.7532207,90.3917946"
Capsicum Thai and Chinese Restaurant,Restaurant,N/A,Dhanmondi,N/A,N/A,N/A,N/A,N/A,23.7580298,90.3867542,"https://www.google.com/maps?q=23.7580298,90.3867542"
Bird Eye Restaurent,Restaurant,N/A,Dholaikhal,N/A,+88029561049,https://www.agranibank.org/,N/A,N/A,23.7304982,90.4120492,"https://www.google.com/maps?q=23.7304982,90.4120492"
Sobuj Saya,Restaurant,N/A,Dholaikhal,N/A,N/A,N/A,N/A,N/A,23.7303596,90.408721,"https://www.google.com/maps?q=23.7303596,90.408721"
বৈশাখী হোটেল ও রেস্তোরা,Restaurant,N/A,Other Dhaka,N/A,N/A,N/A,N/A,N/A,23.7301803,90.407827,"https://www.google.com/maps?q=23.7301803,90.407827"
শেরেবাংলা কৃষি বিশ্ববিদ্যালয় ক্যাফেটেরিয়া,Cafe,N/A,Mohammadpur,N/A,N/A,N/A,N/A,N/A,23.7720248,90.3755488,"https://www.google.com/maps?q=23.7720248,90.3755488"
Coffee Corner,Cafe,N/A,Other Dhaka,N/A,N/A,N/A,N/A,N/A,23.7339493,90.4014954,"https://www.google.com/maps?q=23.7339493,90.4014954"
Red Ribon,Cafe,N/A,Shahbagh,N/A,N/A,N/A,N/A,N/A,23.7379314,90.3964256,"https://www.google.com/maps?q=23.7379314,90.3964256"
CFC,Restaurant,N/A,Shahbagh,N/A,N/A,N/A,N/A,N/A,23.7379026,90.3963074,"https://www.google.com/maps?q=23.7379026,90.3963074"
খুসবু রেস্তরা,Restaurant,N/A,Kalabagan,N/A,N/A,N/A,N/A,N/A,23.7516935,90.3922993,"https://www.google.com/maps?q=23.7516935,90.3922993"
VIP'S Restaurant,Restaurant,N/A,Mirpur,N/A,N/A,N/A,N/A,N/A,23.8002995,90.3554401,"https://www.google.com/maps?q=23.8002995,90.3554401"
নিরঝর প্রান্তর,Cafe,N/A,Mirpur,N/A,N/A,N/A,N/A,N/A,23.8108054,90.3616764,"https://www.google.com/maps?q=23.8108054,90.3616764"
কাবাব ঘর - Kabab Restaurant,Restaurant,N/A,Mohammadpur,N/A,N/A,N/A,N/A,N/A,23.7668224,90.3647129,"https://www.google.com/maps?q=23.7668224,90.3647129"
Tehari Ghor,Restaurant,N/A,Dhanmondi,N/A,N/A,N/A,08:00-20:00,N/A,23.7537236,90.3764151,"https://www.google.com/maps?q=23.7537236,90.3764151"
বেঙ্গল ক্যাফে,Cafe,N/A,Dhanmondi,"Bengal Shilpalay, House 42, সড়ক ২৭ (নতুন ১৬)",N/A,N/A,N/A,N/A,23.7533849,90.3698115,"https://www.google.com/maps?q=23.7533849,90.3698115"
La Bamba,Restaurant,regional,Uttara,N/A,N/A,N/A,N/A,N/A,23.867203,90.393571,"https://www.google.com/maps?q=23.867203,90.393571"
Kings Kebab and Resturant,Restaurant,regional,Niketan,Road 3 Niketon,N/A,N/A,N/A,N/A,23.773368,90.4119705,"https://www.google.com/maps?q=23.773368,90.4119705"
Darling Point Restaurant,Restaurant,N/A,Hazaribagh,N/A,N/A,N/A,N/A,N/A,23.7388237,90.3741103,"https://www.google.com/maps?q=23.7388237,90.3741103"
Haider Hotel,Restaurant,asian,Rayer Bazar,N/A,N/A,N/A,N/A,N/A,23.7396446,90.3645465,"https://www.google.com/maps?q=23.7396446,90.3645465"
Vojon Bilash,Restaurant,asian,Other Dhaka,N/A,N/A,N/A,N/A,N/A,23.7300387,90.3340591,"https://www.google.com/maps?q=23.7300387,90.3340591"
Dominus Pizza,Restaurant,pizza,Other Dhaka,N/A,N/A,N/A,N/A,N/A,23.7383716,90.3776432,"https://www.google.com/maps?q=23.7383716,90.3776432"
Baburchi,Restaurant,indian,Hazaribagh,N/A,N/A,N/A,N/A,N/A,23.7402637,90.3747148,"https://www.google.com/maps?q=23.7402637,90.3747148"
Korai Gost,Restaurant,indian,Hazaribagh,N/A,N/A,N/A,N/A,N/A,23.7403124,90.374699,"https://www.google.com/maps?q=23.7403124,90.374699"
Abacus,Restaurant,N/A,Dhanmondi,N/A,N/A,N/A,N/A,N/A,23.7466113,90.3707916,"https://www.google.com/maps?q=23.7466113,90.3707916"
Broccolia,Restaurant,N/A,Dhanmondi,N/A,N/A,N/A,N/A,N/A,23.7459215,90.371333,"https://www.google.com/maps?q=23.7459215,90.371333"
Olympia Palace,Restaurant,chinese,Dhanmondi,N/A,N/A,N/A,N/A,N/A,23.7465154,90.3708964,"https://www.google.com/maps?q=23.7465154,90.3708964"
Madina Sweetmeet,Restaurant,N/A,Lalbagh,N/A,N/A,N/A,N/A,N/A,23.7203984,90.3859813,"https://www.google.com/maps?q=23.7203984,90.3859813"
Vutto Hotel,Restaurant,N/A,Lalbagh,N/A,N/A,N/A,N/A,N/A,23.7218096,90.382493,"https://www.google.com/maps?q=23.7218096,90.382493"
Holey Artisan Bakery,Cafe,sandwich,Cantonment,Road 79,N/A,N/A,N/A,N/A,23.8025779,90.4166491,"https://www.google.com/maps?q=23.8025779,90.4166491"
Fakhruddin Convention Center,Restaurant,regional,Dhanmondi,"House 3, Road 3",+88029665238,https://www.fakruddin.com/domestic_branch.php,10:00-22:00,N/A,23.7404416,90.3827683,"https://www.google.com/maps?q=23.7404416,90.3827683"
Pizza Hut Delivery,Fast Food,pizza,Dhanmondi,"House 3, Road 3",+8809613-999666,N/A,24/7,N/A,23.7403891,90.3828138,"https://www.google.com/maps?q=23.7403891,90.3828138"
Shawarma House,Restaurant,arab;italian;regional,Dhanmondi,"3, Road 3",+8801766-090002,N/A,10:00-21:00,N/A,23.740149,90.382858,"https://www.google.com/maps?q=23.740149,90.382858"
Baskin Robbins,Fast Food,N/A,Dhanmondi,N/A,N/A,N/A,N/A,N/A,23.7459754,90.3735659,"https://www.google.com/maps?q=23.7459754,90.3735659"
IBA Canteen,Restaurant,"Snaks,_Fried_rice...",Elephant Road,N/A,N/A,N/A,N/A,N/A,23.7350075,90.3940499,"https://www.google.com/maps?q=23.7350075,90.3940499"
Cocktails,Cafe,N/A,Hazaribagh,Road 7A,N/A,N/A,N/A,N/A,23.7439433,90.3745152,"https://www.google.com/maps?q=23.7439433,90.3745152"
Shampan,Restaurant,N/A,Dhanmondi,N/A,N/A,N/A,N/A,N/A,23.7539573,90.371954,"https://www.google.com/maps?q=23.7539573,90.371954"
Sky Chef,Restaurant,N/A,Hazaribagh,N/A,N/A,N/A,N/A,N/A,23.7412738,90.3746361,"https://www.google.com/maps?q=23.7412738,90.3746361"
Jing Ling Restaurant,Restaurant,N/A,Other Dhaka,N/A,N/A,N/A,N/A,N/A,23.7399769,90.3752594,"https://www.google.com/maps?q=23.7399769,90.3752594"
Cart Station,Restaurant,N/A,Other Dhaka,N/A,N/A,N/A,N/A,N/A,23.7398721,90.3753122,"https://www.google.com/maps?q=23.7398721,90.3753122"
California Pastry Shop,Fast Food,N/A,Mohammadpur,N/A,N/A,N/A,N/A,N/A,23.756282,90.374756,"https://www.google.com/maps?q=23.756282,90.374756"
Spicy Chicken Restaurant & Fast Food,Restaurant,"Thai,_Chinese,_Fast_Food",Rampura,Jahurul Islam Avenue,N/A,N/A,N/A,N/A,23.7683239,90.4252066,"https://www.google.com/maps?q=23.7683239,90.4252066"
The Backyard Chef,Restaurant,burger,Uttara,"13 Rabindra Sarani, Sector 3, Uttara Dhaka, Bangladesh",+8801841-111822,https://www.tbcfood.com/,12:00-23:00,N/A,23.8674721,90.3983845,"https://www.google.com/maps?q=23.8674721,90.3983845"
Food Republic,Restaurant,N/A,Gulshan,N/A,N/A,N/A,N/A,N/A,23.7932487,90.4056407,"https://www.google.com/maps?q=23.7932487,90.4056407"
Ahely,Restaurant,regional,Gulshan,N/A,N/A,N/A,N/A,N/A,23.79277,90.4065875,"https://www.google.com/maps?q=23.79277,90.4065875"
Kebab on 7,Restaurant,N/A,Dhanmondi,N/A,N/A,N/A,N/A,N/A,23.7447886,90.3829633,"https://www.google.com/maps?q=23.7447886,90.3829633"
Food Kingdom Restaurant,Restaurant,N/A,Lalbagh,N/A,N/A,N/A,N/A,N/A,23.7123814,90.3806214,"https://www.google.com/maps?q=23.7123814,90.3806214"
Sonamia Mishtanno Vandar,Restaurant,N/A,Jatrabari,Rajani Chowdhury Road,N/A,N/A,N/A,N/A,23.7041797,90.4227023,"https://www.google.com/maps?q=23.7041797,90.4227023"
Abdullah cafe,Cafe,N/A,Postogola,N/A,N/A,N/A,N/A,N/A,23.704074,90.4204127,"https://www.google.com/maps?q=23.704074,90.4204127"
Sumon Hotel,Restaurant,N/A,Other Dhaka,N/A,N/A,N/A,N/A,N/A,23.6909754,90.4422429,"https://www.google.com/maps?q=23.6909754,90.4422429"
Jol mukut restaurant,Restaurant,N/A,Pallabi,N/A,N/A,N/A,N/A,N/A,23.8361656,90.3637716,"https://www.google.com/maps?q=23.8361656,90.3637716"
A F C restaurant,Restaurant,N/A,Pallabi,N/A,N/A,N/A,N/A,N/A,23.8207263,90.3650327,"https://www.google.com/maps?q=23.8207263,90.3650327"
Luck Now,Restaurant,N/A,Gulshan,N/A,N/A,N/A,N/A,N/A,23.793276,90.4093976,"https://www.google.com/maps?q=23.793276,90.4093976"
yummy yummy,Restaurant,fast_food_and_pastry,Mirpur,Main Road - 13,N/A,N/A,10:00-22:00,N/A,23.8050573,90.3765237,"https://www.google.com/maps?q=23.8050573,90.3765237"
Nababi Bhoj,Restaurant,regional,Mohammadpur,Tajmahal Road,N/A,N/A,N/A,N/A,23.7622564,90.3584667,"https://www.google.com/maps?q=23.7622564,90.3584667"
সেলিম কাবাব,Restaurant,regional,Mohammadpur,Salimullah Road,N/A,N/A,N/A,N/A,23.7631169,90.362739,"https://www.google.com/maps?q=23.7631169,90.362739"
Helvetia,Restaurant,burger,Mohammadpur,Ring Road,N/A,N/A,N/A,N/A,23.7663437,90.3584635,"https://www.google.com/maps?q=23.7663437,90.3584635"
CNC,Cafe,pizza;burger;sandwich;ice_cream;regional;coffee_shop;asian,Pallabi,N/A,N/A,N/A,10:00-22:00,N/A,23.8361629,90.3712221,"https://www.google.com/maps?q=23.8361629,90.3712221"
Linchin,Restaurant,chinese,Other Dhaka,N/A,N/A,N/A,N/A,N/A,23.7418825,90.4087249,"https://www.google.com/maps?q=23.7418825,90.4087249"
Supreme Diners,Restaurant,regional,Mirpur,N/A,N/A,N/A,N/A,N/A,23.8005182,90.3545881,"https://www.google.com/maps?q=23.8005182,90.3545881"
Fast Food,Restaurant,N/A,Mirpur,N/A,N/A,N/A,N/A,N/A,23.7984195,90.3519573,"https://www.google.com/maps?q=23.7984195,90.3519573"
Biriyani House,Restaurant,N/A,Mirpur,N/A,N/A,N/A,N/A,N/A,23.797949,90.3530423,"https://www.google.com/maps?q=23.797949,90.3530423"
dddf,Restaurant,pizza,Kamrangirchar,N/A,N/A,N/A,N/A,N/A,23.7102734,90.3681191,"https://www.google.com/maps?q=23.7102734,90.3681191"
sugondha community center,Restaurant,N/A,Hazaribagh,N/A,N/A,N/A,N/A,N/A,23.7414256,90.3732621,"https://www.google.com/maps?q=23.7414256,90.3732621"
Kaisar sweet shop,Restaurant,regional,Hazaribagh,Jigatola Post Office Road,N/A,N/A,N/A,N/A,23.7387925,90.3742672,"https://www.google.com/maps?q=23.7387925,90.3742672"
Charcoal Steak House,Restaurant,N/A,Gulshan,"3, Road 136",N/A,N/A,N/A,N/A,23.7788276,90.4172674,"https://www.google.com/maps?q=23.7788276,90.4172674"
Cold Stone Creamery,Restaurant,ice_cream,Gulshan,Bir Uttam Mir Shawkat Sarak (Gulshan Ave),N/A,N/A,N/A,N/A,23.7777243,90.4163813,"https://www.google.com/maps?q=23.7777243,90.4163813"
China Sizzling,Restaurant,chinese,Malibagh,শহীদ বাকি সড়ক,N/A,N/A,N/A,N/A,23.7524406,90.4204805,"https://www.google.com/maps?q=23.7524406,90.4204805"
California Fried Chicken,Restaurant,N/A,Pallabi,N/A,N/A,N/A,N/A,N/A,23.8229172,90.3641354,"https://www.google.com/maps?q=23.8229172,90.3641354"
Khaja Ajmiri Hotel,Restaurant,N/A,Mohammadpur,N/A,N/A,N/A,"Mo-Su,PH 05:00-01:00",N/A,23.778298,90.3614175,"https://www.google.com/maps?q=23.778298,90.3614175"
chayanir,Restaurant,regional,Mohammadpur,N/A,N/A,N/A,N/A,N/A,23.7570263,90.3618164,"https://www.google.com/maps?q=23.7570263,90.3618164"
Vikrampur Mistanno Bhandar,Restaurant,"Sandwich,Singara,Samucha,Sweets",Rayer Bazar,"78, Satmasjid Road",N/A,N/A,09:00-21:00,N/A,23.7519291,90.36723,"https://www.google.com/maps?q=23.7519291,90.36723"
Cafe bogdad,Cafe,regional,Mohammadpur,N/A,N/A,N/A,N/A,N/A,23.7567583,90.3609563,"https://www.google.com/maps?q=23.7567583,90.3609563"
doi ghor,Cafe,N/A,Mohammadpur,N/A,N/A,N/A,N/A,N/A,23.7558907,90.3613462,"https://www.google.com/maps?q=23.7558907,90.3613462"
Sura,Restaurant,korean,Gulshan,Road 43,N/A,N/A,N/A,N/A,23.7920275,90.4125238,"https://www.google.com/maps?q=23.7920275,90.4125238"
Slider Restaurant,Restaurant,"pizza,_Burger",Gulshan,Road 49,N/A,N/A,09:00-12:00,N/A,23.7929373,90.4106266,"https://www.google.com/maps?q=23.7929373,90.4106266"
Sayanir Resturant,Cafe,N/A,Mohammadpur,N/A,N/A,N/A,N/A,N/A,23.7567916,90.3610592,"https://www.google.com/maps?q=23.7567916,90.3610592"
dynamic Food Court,Cafe,N/A,Hazaribagh,N/A,N/A,N/A,N/A,N/A,23.7418414,90.3744891,"https://www.google.com/maps?q=23.7418414,90.3744891"
Cha Bar,Cafe,regional,Dhanmondi,N/A,N/A,N/A,N/A,N/A,23.7462156,90.3710188,"https://www.google.com/maps?q=23.7462156,90.3710188"
Hello Dhamondi,Cafe,regional,Hazaribagh,N/A,N/A,N/A,N/A,N/A,23.7446033,90.3720729,"https://www.google.com/maps?q=23.7446033,90.3720729"
Cafe Droom,Cafe,coffee_shop,Hazaribagh,N/A,N/A,N/A,N/A,N/A,23.7445525,90.3720632,"https://www.google.com/maps?q=23.7445525,90.3720632"
Coopers,Cafe,pastry,Dhanmondi,N/A,N/A,N/A,N/A,N/A,23.7465593,90.370823,"https://www.google.com/maps?q=23.7465593,90.370823"
Nostalgic Cafe,Restaurant,international,Dhanmondi,N/A,N/A,N/A,N/A,N/A,23.7469199,90.3705236,"https://www.google.com/maps?q=23.7469199,90.3705236"
Jaypur sweets,Fast Food,N/A,Dhanmondi,N/A,N/A,N/A,N/A,N/A,23.7454493,90.3716448,"https://www.google.com/maps?q=23.7454493,90.3716448"
Swarma KIng,Restaurant,pizza,Dhanmondi,N/A,N/A,N/A,N/A,N/A,23.7453732,90.3716609,"https://www.google.com/maps?q=23.7453732,90.3716609"
The Lamp Cafe,Restaurant,regional,Dhanmondi,N/A,N/A,N/A,N/A,N/A,23.7459771,90.3710279,"https://www.google.com/maps?q=23.7459771,90.3710279"
Gloria Jeans Coffee,Cafe,Coffee_shop;regional,Dhanmondi,"67 (New), Satmasjid Road",N/A,N/A,N/A,N/A,23.7495419,90.3687507,"https://www.google.com/maps?q=23.7495419,90.3687507"
Clinic Cafe,Restaurant,international,Dhanmondi,"67 (New), Satmasjid Road",N/A,N/A,N/A,N/A,23.7495125,90.3687158,"https://www.google.com/maps?q=23.7495125,90.3687158"
rabbani 2,Restaurant,N/A,Mirpur,N/A,N/A,N/A,N/A,N/A,23.8168069,90.369048,"https://www.google.com/maps?q=23.8168069,90.369048"
Flambe Restaurent,Restaurant,N/A,Gulshan,N/A,N/A,N/A,N/A,N/A,23.7945282,90.4102855,"https://www.google.com/maps?q=23.7945282,90.4102855"
CP Chicken,Fast Food,chicken,Bashabo,N/A,N/A,N/A,N/A,N/A,23.7482107,90.4329249,"https://www.google.com/maps?q=23.7482107,90.4329249"
Delhi Darbar,Restaurant,international;indian,Dhanmondi,"67 (New), Satmasjid Road",N/A,N/A,N/A,N/A,23.7495366,90.3687022,"https://www.google.com/maps?q=23.7495366,90.3687022"
13NO BRIDGE,Fast Food,regional,Uttara,"Gausul Azam Avenue, Sector 14",N/A,N/A,19:00-23:00,N/A,23.8695342,90.392836,"https://www.google.com/maps?q=23.8695342,90.392836"
Mama'r cha-er dokan.,Cafe,chips_and_cake_or_coke.,Hazaribagh,Road 8A - Rayer Bazar Staff Quarter Road,N/A,N/A,N/A,N/A,23.7439124,90.3688278,"https://www.google.com/maps?q=23.7439124,90.3688278"
Grameen Sweets,Fast Food,N/A,Elephant Road,Shahid Janani Jahanara Imam Saroni,N/A,N/A,N/A,N/A,23.736779,90.3865677,"https://www.google.com/maps?q=23.736779,90.3865677"
King Chinese Restaurant (2nd Floor),Restaurant,N/A,Jatrabari,N/A,N/A,N/A,N/A,N/A,23.7058374,90.4225699,"https://www.google.com/maps?q=23.7058374,90.4225699"
New Sun Decorator,Restaurant,N/A,Jatrabari,"25, Distilary Road",N/A,N/A,N/A,N/A,23.7073577,90.4239683,"https://www.google.com/maps?q=23.7073577,90.4239683"
Resturent,Restaurant,N/A,Jatrabari,N/A,N/A,N/A,N/A,N/A,23.7090705,90.4236857,"https://www.google.com/maps?q=23.7090705,90.4236857"
Tea Stall,Cafe,N/A,Jatrabari,N/A,N/A,N/A,N/A,N/A,23.710868,90.4237575,"https://www.google.com/maps?q=23.710868,90.4237575"
Tasty Treat,Restaurant,pizza;burger;candy;cake,Postogola,"39,4, Old Sharafat Gonj Ln",01704-134426,N/A,07:00-23:00,N/A,23.7058391,90.4219264,"https://www.google.com/maps?q=23.7058391,90.4219264"
Abdullah Biriani House,Restaurant,N/A,Jatrabari,N/A,N/A,N/A,N/A,N/A,23.7103748,90.4240971,"https://www.google.com/maps?q=23.7103748,90.4240971"
Rajostan Fast Food & Gilipi Ghor,Fast Food,N/A,Jatrabari,Doyagonj Natun Rasta,N/A,N/A,N/A,N/A,23.7102242,90.4244243,"https://www.google.com/maps?q=23.7102242,90.4244243"
Fast Food & Becary,Fast Food,N/A,Jatrabari,N/A,N/A,N/A,N/A,N/A,23.7102254,90.4245651,"https://www.google.com/maps?q=23.7102254,90.4245651"
Rasel,Restaurant,N/A,Jatrabari,N/A,N/A,N/A,N/A,N/A,23.7033464,90.4261988,"https://www.google.com/maps?q=23.7033464,90.4261988"
Briani House,Cafe,regional,Jatrabari,N/A,N/A,N/A,N/A,N/A,23.7051022,90.4268701,"https://www.google.com/maps?q=23.7051022,90.4268701"
Resturant,Restaurant,N/A,Jatrabari,N/A,N/A,N/A,N/A,N/A,23.7014145,90.4254203,"https://www.google.com/maps?q=23.7014145,90.4254203"
Allahar Dan Biriyani House,Restaurant,N/A,Jatrabari,N/A,N/A,N/A,N/A,N/A,23.70122,90.4280503,"https://www.google.com/maps?q=23.70122,90.4280503"
khusbo kabab ghor,Restaurant,N/A,Postogola,N/A,N/A,N/A,N/A,N/A,23.6995022,90.4293443,"https://www.google.com/maps?q=23.6995022,90.4293443"
ক্যাফে চেরি ড্রপস,Restaurant,international,Malibagh,Shahid Baki Sarak,N/A,N/A,N/A,N/A,23.7521539,90.4206001,"https://www.google.com/maps?q=23.7521539,90.4206001"
Mango Tree,Restaurant,regional,Malibagh,Shahid Baki Sarak,N/A,N/A,N/A,N/A,23.7522214,90.4214692,"https://www.google.com/maps?q=23.7522214,90.4214692"
Apon Coffee Shop,Cafe,coffee_shop,Malibagh,Shahid Baki Sarak,N/A,N/A,N/A,N/A,23.7522232,90.421561,"https://www.google.com/maps?q=23.7522232,90.421561"
Cafe Appeliano,Restaurant,N/A,Malibagh,"567/A, শহীদ বাকি সড়ক",N/A,N/A,N/A,N/A,23.7520122,90.4214025,"https://www.google.com/maps?q=23.7520122,90.4214025"
অলিভার চাইনিজ রেস্টুরেন্টে,Restaurant,N/A,Malibagh,"568/C, শহীদ বাকি সড়ক",N/A,N/A,N/A,N/A,23.7520298,90.4212057,"https://www.google.com/maps?q=23.7520298,90.4212057"
Comic Cafe,Restaurant,international,Malibagh,শহীদ বাকি সড়ক,N/A,N/A,N/A,N/A,23.7519375,90.421537,"https://www.google.com/maps?q=23.7519375,90.421537"
Turkish Kebab Industrie,Restaurant,kebab,Malibagh,শহীদ বাকি সড়ক,N/A,N/A,N/A,N/A,23.7519158,90.4216734,"https://www.google.com/maps?q=23.7519158,90.4216734"
নানা বিরিয়ানি,Restaurant,Biriyani,Malibagh,শহীদ বাকি সড়ক,N/A,N/A,N/A,N/A,23.7516899,90.423406,"https://www.google.com/maps?q=23.7516899,90.423406"
CP Chicken,Fast Food,chicken,Malibagh,শহীদ বাকি সড়ক,N/A,N/A,N/A,N/A,23.7518813,90.4228052,"https://www.google.com/maps?q=23.7518813,90.4228052"
Blue Moon Restaurant & Party Centre,Restaurant,N/A,Malibagh,শহীদ বাকি সড়ক,N/A,N/A,N/A,N/A,23.7516016,90.4228214,"https://www.google.com/maps?q=23.7516016,90.4228214"
Charulota Restaurant,Restaurant,N/A,Panthapath,N/A,N/A,N/A,N/A,N/A,23.7523126,90.3932987,"https://www.google.com/maps?q=23.7523126,90.3932987"
Cafe Surma Hotel and Restaurant,Restaurant,N/A,Panthapath,N/A,N/A,N/A,24/7,N/A,23.7523968,90.393819,"https://www.google.com/maps?q=23.7523968,90.393819"
Bittersweet Cafe,Cafe,italian,Gulshan,N/A,N/A,N/A,N/A,N/A,23.7957143,90.4133598,"https://www.google.com/maps?q=23.7957143,90.4133598"
Sbarro,Fast Food,pizza,Gulshan,N/A,N/A,http://www.sbarrobd.com/,N/A,N/A,23.7962887,90.4131599,"https://www.google.com/maps?q=23.7962887,90.4131599"
মি. বার্গার,Fast Food,burger,Malibagh,N/A,N/A,N/A,18:00+,N/A,23.752326,90.4202188,"https://www.google.com/maps?q=23.752326,90.4202188"
Rabbani Hotel & Restaurant,Restaurant,indian,Mirpur,N/A,N/A,N/A,"PH,Mo-Su 07:00-23:00",N/A,23.8101616,90.3717819,"https://www.google.com/maps?q=23.8101616,90.3717819"
Priesley's,Fast Food,N/A,Other Dhaka,N/A,N/A,N/A,N/A,N/A,23.7336232,90.4065752,"https://www.google.com/maps?q=23.7336232,90.4065752"
Bagicha Restaurant,Restaurant,asian,Other Dhaka,N/A,N/A,N/A,N/A,N/A,23.7333329,90.406562,"https://www.google.com/maps?q=23.7333329,90.406562"
Enjoy Fast Food & Restaurant,Restaurant,indian,Other Dhaka,N/A,N/A,N/A,N/A,N/A,23.7337002,90.4080883,"https://www.google.com/maps?q=23.7337002,90.4080883"
Chittagong Hotel& Restaurant,Restaurant,indian,Other Dhaka,N/A,N/A,N/A,N/A,N/A,23.7343427,90.4080833,"https://www.google.com/maps?q=23.7343427,90.4080833"
Kinnori Restaurant,Restaurant,indian,Other Dhaka,N/A,N/A,N/A,N/A,N/A,23.7361554,90.4094491,"https://www.google.com/maps?q=23.7361554,90.4094491"
Sugondha Foods,Restaurant,indian,Other Dhaka,N/A,N/A,N/A,N/A,N/A,23.7361384,90.4097206,"https://www.google.com/maps?q=23.7361384,90.4097206"
GSB Canteen,Food Court,N/A,Other Dhaka,N/A,N/A,N/A,N/A,N/A,23.7361427,90.4067393,"https://www.google.com/maps?q=23.7361427,90.4067393"
Dudok Canteen,Restaurant,indian,Other Dhaka,N/A,N/A,N/A,N/A,N/A,23.7355828,90.4062913,"https://www.google.com/maps?q=23.7355828,90.4062913"
Shahi Khawar Dokan,Restaurant,N/A,Other Dhaka,N/A,N/A,N/A,N/A,N/A,23.8531711,90.4067378,"https://www.google.com/maps?q=23.8531711,90.4067378"
মনোলোভা রেস্টুরেন্ট,Restaurant,N/A,Other Dhaka,N/A,N/A,N/A,N/A,N/A,23.85268,90.407159,"https://www.google.com/maps?q=23.85268,90.407159"
Tangail Pusti Sweets,Restaurant,N/A,Other Dhaka,N/A,N/A,N/A,N/A,N/A,23.8506082,90.4088199,"https://www.google.com/maps?q=23.8506082,90.4088199"
Test purpose cafe,Cafe,N/A,Kafrul,N/A,N/A,N/A,N/A,N/A,23.8198598,90.3806667,"https://www.google.com/maps?q=23.8198598,90.3806667"
Bangla Biriani House,Restaurant,indian,Pallabi,N/A,N/A,N/A,N/A,N/A,23.8218114,90.3778921,"https://www.google.com/maps?q=23.8218114,90.3778921"
Kiva Han,Cafe,N/A,Gulshan,"House - 1/A (1st Floor), Gulshan-1, Road - 23",+8801755555844,https://kivahancafe.com/,N/A,N/A,23.7819674,90.4159433,"https://www.google.com/maps?q=23.7819674,90.4159433"
Mr. Baker,Cafe,bakery,Gulshan,N/A,N/A,N/A,N/A,N/A,23.7939645,90.4150522,"https://www.google.com/maps?q=23.7939645,90.4150522"
Re eat,Cafe,N/A,Uttara,N/A,N/A,N/A,N/A,N/A,23.8710853,90.4055523,"https://www.google.com/maps?q=23.8710853,90.4055523"
CP fried chicken,Fast Food,chicken,Uttara,N/A,N/A,N/A,N/A,N/A,23.8645758,90.4017242,"https://www.google.com/maps?q=23.8645758,90.4017242"
Sea shell,Restaurant,N/A,Uttara,N/A,N/A,N/A,N/A,N/A,23.8638964,90.4003508,"https://www.google.com/maps?q=23.8638964,90.4003508"
Fire on Ice,Cafe,N/A,Other Dhaka,N/A,N/A,N/A,N/A,N/A,23.8591536,90.4008281,"https://www.google.com/maps?q=23.8591536,90.4008281"
Georges Cafe,Cafe,N/A,Other Dhaka,N/A,N/A,N/A,N/A,N/A,23.8593786,90.4006136,"https://www.google.com/maps?q=23.8593786,90.4006136"
Helvetia,Restaurant,N/A,Uttara,N/A,N/A,N/A,N/A,N/A,23.8653369,90.4004342,"https://www.google.com/maps?q=23.8653369,90.4004342"
Seseragi,Restaurant,japanese,Uttara,N/A,N/A,N/A,N/A,N/A,23.8645669,90.4015304,"https://www.google.com/maps?q=23.8645669,90.4015304"
Golden biriyani,Fast Food,regional,Uttara,N/A,N/A,N/A,N/A,N/A,23.8736434,90.4010913,"https://www.google.com/maps?q=23.8736434,90.4010913"
Taste,Fast Food,burger,Uttara,N/A,N/A,N/A,N/A,N/A,23.8682209,90.4038048,"https://www.google.com/maps?q=23.8682209,90.4038048"
Italian Pizza House,Fast Food,pizza,Uttara,N/A,+8801792125412,http://www.italianpizzahousebd.com/,N/A,N/A,23.8621251,90.4031648,"https://www.google.com/maps?q=23.8621251,90.4031648"
The Nordic Club Dhaka,Restaurant,international,Cantonment,"House 2, Road 80","+88 02 58810333,+88 02 9843021",http://www.nordicbd.org/index,07:00-22:00,N/A,23.801546,90.4165341,"https://www.google.com/maps?q=23.801546,90.4165341"
REB Canteen,Restaurant,N/A,Cantonment,N/A,N/A,N/A,N/A,N/A,23.8309574,90.4191332,"https://www.google.com/maps?q=23.8309574,90.4191332"
all modina hotel,Restaurant,singara,Mirpur,Road-7,N/A,N/A,N/A,N/A,23.8112959,90.3565967,"https://www.google.com/maps?q=23.8112959,90.3565967"
cafe barista,Cafe,N/A,Mirpur,Road-7,N/A,N/A,N/A,N/A,23.8113467,90.3565404,"https://www.google.com/maps?q=23.8113467,90.3565404"
Turzo Fastfood,Fast Food,N/A,Mirpur,Road-8,N/A,N/A,N/A,N/A,23.8118746,90.3566119,"https://www.google.com/maps?q=23.8118746,90.3566119"
Comic Cafe,Restaurant,regional;pizza;burger;pasta;indian;steak_house;chinese,Dhanmondi,"67 (New), Satmasjid Road",N/A,N/A,N/A,N/A,23.749533,90.368793,"https://www.google.com/maps?q=23.749533,90.368793"
santa Hotel,Restaurant,N/A,Karwan Bazar,N/A,N/A,N/A,N/A,N/A,23.7570853,90.4070408,"https://www.google.com/maps?q=23.7570853,90.4070408"
Jhunu Biriani House,Restaurant,N/A,Old Dhaka,Narinda Road,N/A,N/A,N/A,N/A,23.7112418,90.4183274,"https://www.google.com/maps?q=23.7112418,90.4183274"
taneems restaurant,Fast Food,N/A,Old Dhaka,N/A,N/A,N/A,N/A,N/A,23.7114093,90.4185222,"https://www.google.com/maps?q=23.7114093,90.4185222"
Shawarma House,Restaurant,N/A,Eskaton,N/A,N/A,N/A,N/A,N/A,23.7556793,90.4113204,"https://www.google.com/maps?q=23.7556793,90.4113204"
Five star chicken,Fast Food,N/A,Eskaton,N/A,N/A,N/A,N/A,N/A,23.7561791,90.4112459,"https://www.google.com/maps?q=23.7561791,90.4112459"
food,Fast Food,N/A,Karwan Bazar,N/A,N/A,N/A,N/A,N/A,23.754714,90.4077519,"https://www.google.com/maps?q=23.754714,90.4077519"
Oviruchi Fast Food,Fast Food,N/A,Tejgaon,N/A,N/A,N/A,N/A,N/A,23.7600236,90.4109469,"https://www.google.com/maps?q=23.7600236,90.4109469"
Rony Hotel,Restaurant,N/A,Eskaton,N/A,N/A,N/A,N/A,N/A,23.7572669,90.4115196,"https://www.google.com/maps?q=23.7572669,90.4115196"
Khabar Hotel,Restaurant,N/A,Eskaton,N/A,N/A,N/A,N/A,N/A,23.7583132,90.411532,"https://www.google.com/maps?q=23.7583132,90.411532"
Puran Dhaka Biriyani,Food Court,N/A,Eskaton,N/A,N/A,N/A,N/A,N/A,23.7558387,90.4111648,"https://www.google.com/maps?q=23.7558387,90.4111648"
Mama Chatpati,Fast Food,N/A,Eskaton,N/A,N/A,N/A,N/A,N/A,23.7554402,90.4111699,"https://www.google.com/maps?q=23.7554402,90.4111699"
Jahangir hotel&restaurant,Restaurant,N/A,Eskaton,N/A,N/A,N/A,N/A,N/A,23.7569087,90.4098041,"https://www.google.com/maps?q=23.7569087,90.4098041"
Mayer Doya Biriyani & Restaurent,Restaurant,N/A,Eskaton,N/A,N/A,N/A,N/A,N/A,23.750792,90.4090031,"https://www.google.com/maps?q=23.750792,90.4090031"
Dhaka Kabab Ghor,Food Court,N/A,Eskaton,N/A,N/A,N/A,N/A,N/A,23.7508345,90.4091425,"https://www.google.com/maps?q=23.7508345,90.4091425"
Boishakhi Hotel,Restaurant,N/A,Karwan Bazar,N/A,N/A,N/A,N/A,N/A,23.7515785,90.4064499,"https://www.google.com/maps?q=23.7515785,90.4064499"
Fast Food Shop,Fast Food,N/A,Eskaton,N/A,N/A,N/A,N/A,N/A,23.7511275,90.4093775,"https://www.google.com/maps?q=23.7511275,90.4093775"
Nur Hotel,Restaurant,N/A,Karwan Bazar,N/A,N/A,N/A,N/A,N/A,23.7511285,90.4039542,"https://www.google.com/maps?q=23.7511285,90.4039542"
Al-Amin Snacks,Fast Food,N/A,Eskaton,N/A,N/A,N/A,N/A,N/A,23.750346,90.4088101,"https://www.google.com/maps?q=23.750346,90.4088101"
Ghoroa Fast Food,Fast Food,N/A,Karwan Bazar,N/A,N/A,N/A,N/A,N/A,23.7523837,90.4052285,"https://www.google.com/maps?q=23.7523837,90.4052285"
Khaber Hotel,Restaurant,N/A,Karwan Bazar,N/A,N/A,N/A,N/A,N/A,23.7526565,90.4056967,"https://www.google.com/maps?q=23.7526565,90.4056967"
Bismillah Hotel & Restaurant,Restaurant,N/A,Karwan Bazar,N/A,N/A,N/A,N/A,N/A,23.7555432,90.4073849,"https://www.google.com/maps?q=23.7555432,90.4073849"
STA fast food,Fast Food,N/A,Karwan Bazar,N/A,N/A,N/A,N/A,N/A,23.7514715,90.4064833,"https://www.google.com/maps?q=23.7514715,90.4064833"
Preetom,Fast Food,burger,Banani,"32, Kamal Ataturk Avenue",+8801788650022,https://preetom.com/,Mo-Su 10:00-22:00,N/A,23.7938065,90.4046298,"https://www.google.com/maps?q=23.7938065,90.4046298"
Fireflies,Restaurant,N/A,Dhanmondi,N/A,N/A,N/A,N/A,N/A,23.7529227,90.3693385,"https://www.google.com/maps?q=23.7529227,90.3693385"
Al-amar,Restaurant,lebanese,Dhanmondi,N/A,N/A,N/A,N/A,N/A,23.7528686,90.3691937,"https://www.google.com/maps?q=23.7528686,90.3691937"
Crimson cup coffee shop,Cafe,american;breakfast;cake;coffee_shop;donut;grill;mexican;sausage;sandwich;tea,Dhanmondi,Road 27 (New 16),N/A,N/A,N/A,N/A,23.7529055,90.3692795,"https://www.google.com/maps?q=23.7529055,90.3692795"
TBC,Restaurant,japanese,Dhanmondi,"1/5, Block D, Road No 7, Lalmatia",N/A,N/A,Mo-Su 12:00-23:00,N/A,23.7539177,90.3695975,"https://www.google.com/maps?q=23.7539177,90.3695975"
Thirty three,Restaurant,N/A,Other Dhaka,N/A,N/A,N/A,N/A,N/A,23.7419489,90.4099857,"https://www.google.com/maps?q=23.7419489,90.4099857"
Showkat Kabab Ghar,Restaurant,regional;indian,Mirpur,"01, line 11",N/A,N/A,"Mo-Su,PH 01:00-21:00",N/A,23.8120996,90.3697063,"https://www.google.com/maps?q=23.8120996,90.3697063"
Chillers,Cafe,coffee_shop,Pallabi,N/A,N/A,N/A,Mo-Su 17:00-22:00,N/A,23.8365005,90.3762424,"https://www.google.com/maps?q=23.8365005,90.3762424"
Subhub,Fast Food,N/A,Pallabi,N/A,N/A,N/A,Mo-Su 17:00-22:00,N/A,23.8365306,90.3762513,"https://www.google.com/maps?q=23.8365306,90.3762513"
Café Selfie,Cafe,N/A,Mohammadpur,N/A,N/A,N/A,N/A,N/A,23.7648983,90.3585808,"https://www.google.com/maps?q=23.7648983,90.3585808"
Takeout,Cafe,N/A,Banani,N/A,N/A,N/A,N/A,N/A,23.7921149,90.4022739,"https://www.google.com/maps?q=23.7921149,90.4022739"
Sumaya Hotel,Restaurant,N/A,Dhanmondi,Central Road,N/A,N/A,N/A,N/A,23.7419224,90.3880778,"https://www.google.com/maps?q=23.7419224,90.3880778"
পালকি,Restaurant,N/A,Malibagh,শহীদ বাকি সড়ক,N/A,N/A,N/A,N/A,23.7524635,90.4207152,"https://www.google.com/maps?q=23.7524635,90.4207152"
CP Five Star,Restaurant,fried_chicken,Other Dhaka,N/A,N/A,N/A,N/A,N/A,23.7340594,90.406552,"https://www.google.com/maps?q=23.7340594,90.406552"
Royal Aroma,Restaurant,chinese,Other Dhaka,"6/1/A, Segunbagicha Road",+8801407-029647,N/A,N/A,N/A,23.73308,90.4074872,"https://www.google.com/maps?q=23.73308,90.4074872"
CP Five Star,Fast Food,N/A,Other Dhaka,S. Nazrul Islam Sharani,N/A,N/A,N/A,N/A,23.7333994,90.4100021,"https://www.google.com/maps?q=23.7333994,90.4100021"
FBS Food Court,Restaurant,regional,Elephant Road,N/A,N/A,N/A,N/A,N/A,23.7354496,90.3926624,"https://www.google.com/maps?q=23.7354496,90.3926624"
IER Canteen,Restaurant,regional,Elephant Road,N/A,N/A,N/A,Su-Th 08:00-18:00,N/A,23.7341929,90.3905368,"https://www.google.com/maps?q=23.7341929,90.3905368"
DSS Cafe and Restaurant,Restaurant,N/A,Mohammadpur,Begum Rokeya Sharani,N/A,N/A,N/A,N/A,23.7896633,90.3757495,"https://www.google.com/maps?q=23.7896633,90.3757495"
Chili's,Restaurant,tex-mex,Dhanmondi,মিরপুর রোড,N/A,N/A,N/A,N/A,23.7520734,90.377498,"https://www.google.com/maps?q=23.7520734,90.377498"
Dining Room,Restaurant,N/A,New Market,dhaka college campus path,N/A,N/A,N/A,N/A,23.735115,90.3800085,"https://www.google.com/maps?q=23.735115,90.3800085"
Nanna Biriani,Restaurant,regional,Elephant Road,N/A,N/A,N/A,09:00-22:00,N/A,23.7361462,90.3860937,"https://www.google.com/maps?q=23.7361462,90.3860937"
Grand Restaurant,Restaurant,N/A,Old Dhaka,N/A,N/A,N/A,N/A,N/A,23.7244713,90.3955437,"https://www.google.com/maps?q=23.7244713,90.3955437"
Gausul Azam Restaurant,Restaurant,regional,Elephant Road,N/A,N/A,N/A,Gause Pak Restaurant,N/A,23.7356007,90.3855839,"https://www.google.com/maps?q=23.7356007,90.3855839"
Hirajheel Hotel,Restaurant,N/A,Motijheel,N/A,N/A,N/A,N/A,N/A,23.7253471,90.4217971,"https://www.google.com/maps?q=23.7253471,90.4217971"
"Dadur Dokan, kabi sufia kamal hall",Restaurant,N/A,Other Dhaka,N/A,N/A,N/A,N/A,N/A,23.7261424,90.4050109,"https://www.google.com/maps?q=23.7261424,90.4050109"
Royal Buffet,Restaurant,buffet,Dhanmondi,N/A,N/A,N/A,N/A,N/A,23.7420318,90.3824364,"https://www.google.com/maps?q=23.7420318,90.3824364"
Thai Chi,Restaurant,N/A,Dhanmondi,N/A,N/A,N/A,N/A,N/A,23.7647789,90.3896986,"https://www.google.com/maps?q=23.7647789,90.3896986"
Kaisar Sweets,Fast Food,sweets,Hazaribagh,P9QC+7XW,N/A,N/A,N/A,N/A,23.7382264,90.3724955,"https://www.google.com/maps?q=23.7382264,90.3724955"
Purbani Restaurant,Restaurant,N/A,New Market,N/A,N/A,N/A,N/A,N/A,23.733758,90.3815618,"https://www.google.com/maps?q=23.733758,90.3815618"
Madina Fast Food,Fast Food,chicken;burger;pizza;sandwich;ice_cream,Elephant Road,নিউমার্কেট ফুটওভার ব্রিজ,N/A,N/A,N/A,N/A,23.7339898,90.3844652,"https://www.google.com/maps?q=23.7339898,90.3844652"
Noor Chicken,Fast Food,N/A,Elephant Road,N/A,N/A,N/A,N/A,N/A,23.7341011,90.3844116,"https://www.google.com/maps?q=23.7341011,90.3844116"
Boishaki Bangla Restora,Restaurant,N/A,Dhanmondi,N/A,N/A,N/A,N/A,N/A,23.7415064,90.3831137,"https://www.google.com/maps?q=23.7415064,90.3831137"
Western Grill,Restaurant,burger;chicken,Dhanmondi,N/A,N/A,N/A,N/A,N/A,23.7414909,90.3829981,"https://www.google.com/maps?q=23.7414909,90.3829981"
Panaco,Restaurant,N/A,Dhanmondi,N/A,N/A,N/A,N/A,N/A,23.7414993,90.383049,"https://www.google.com/maps?q=23.7414993,90.383049"
Banaful sweets,Restaurant,N/A,Mohammadpur,N/A,N/A,N/A,N/A,N/A,23.7668993,90.3587584,"https://www.google.com/maps?q=23.7668993,90.3587584"
Arabian Fast Food,Fast Food,N/A,Dhanmondi,N/A,N/A,N/A,N/A,N/A,23.7423149,90.3823549,"https://www.google.com/maps?q=23.7423149,90.3823549"
Eric's Bistro cafe Gallery,Cafe,N/A,Dhanmondi,N/A,N/A,N/A,N/A,N/A,23.7423726,90.3823536,"https://www.google.com/maps?q=23.7423726,90.3823536"
Adda Restaurant and Part Center,Restaurant,N/A,Dhanmondi,N/A,N/A,N/A,N/A,N/A,23.7418942,90.3824631,"https://www.google.com/maps?q=23.7418942,90.3824631"
Anondo Snacks,Fast Food,regional,Elephant Road,নিউমার্কেট ফুটওভার ব্রিজ,N/A,N/A,10:00+,N/A,23.7342462,90.3843452,"https://www.google.com/maps?q=23.7342462,90.3843452"
Canteen,Restaurant,regional,Dhanmondi,"46, Central Road",N/A,N/A,Mo-Fr 10:00-16:00; Sa-Su off,N/A,23.7416183,90.385348,"https://www.google.com/maps?q=23.7416183,90.385348"
Oshto Benjon,Restaurant,regional,Elephant Road,কাঁটাবন রোড,N/A,N/A,24 Hours,N/A,23.7371315,90.3898724,"https://www.google.com/maps?q=23.7371315,90.3898724"
চিংড়ি রেস্তোরা,Restaurant,N/A,Shahbagh,কাঁটাবন রোড,N/A,N/A,N/A,N/A,23.738457,90.3906833,"https://www.google.com/maps?q=23.738457,90.3906833"
টুংকিং রেস্টুরেন্ট,Restaurant,N/A,Shahbagh,কাঁটাবন রোড,N/A,N/A,N/A,N/A,23.738547,90.3907211,"https://www.google.com/maps?q=23.738547,90.3907211"
Glorious Restaurant,Restaurant,N/A,Shahbagh,কাঁটাবন রোড,N/A,N/A,N/A,N/A,23.7385031,90.390705,"https://www.google.com/maps?q=23.7385031,90.390705"
Goroa Hotal And Restaurant,Restaurant,Bangla,Elephant Road,N/A,N/A,N/A,10:00-08:00,N/A,23.739279,90.3878443,"https://www.google.com/maps?q=23.739279,90.3878443"
Kabab Ghor,Restaurant,N/A,Elephant Road,N/A,N/A,N/A,10:00-8:00,N/A,23.7392129,90.3879105,"https://www.google.com/maps?q=23.7392129,90.3879105"
Khaja Ajmeri Hotel,Restaurant,Biriani,Dhanmondi,"69, North Circular Road",N/A,N/A,08:00+,N/A,23.7434302,90.3853716,"https://www.google.com/maps?q=23.7434302,90.3853716"
Hot & Fresh,Fast Food,burger,Dhanmondi,"74, North Circular Road",N/A,N/A,10:00+,N/A,23.7433913,90.3854459,"https://www.google.com/maps?q=23.7433913,90.3854459"
Helvatia,Restaurant,N/A,Mohammadpur,N/A,N/A,N/A,N/A,N/A,23.7667117,90.3583181,"https://www.google.com/maps?q=23.7667117,90.3583181"
Gorar Birani,Restaurant,N/A,Elephant Road,N/A,N/A,N/A,N/A,N/A,23.7391866,90.388031,"https://www.google.com/maps?q=23.7391866,90.388031"
Lobstar King,Restaurant,snacks,Shahbagh,Hatirpool,N/A,N/A,N/A,N/A,23.741391,90.3917625,"https://www.google.com/maps?q=23.741391,90.3917625"
China Kitchen,Restaurant,N/A,Shahbagh,কাঁটাবন রোড,N/A,N/A,N/A,N/A,23.7375296,90.3900238,"https://www.google.com/maps?q=23.7375296,90.3900238"
Habib Fast Food & Mini Chinese,Restaurant,fast_food,Elephant Road,no.4,N/A,N/A,09:00-22:00,N/A,23.7346561,90.3849702,"https://www.google.com/maps?q=23.7346561,90.3849702"
Check In Restaurant,Restaurant,regional,Elephant Road,N/A,N/A,N/A,09:00-23:00,N/A,23.7375199,90.3873867,"https://www.google.com/maps?q=23.7375199,90.3873867"
Jannat Hotel,Restaurant,regional,Lalbagh,Lalbagh road,N/A,N/A,06:00-23:00,N/A,23.7216876,90.3880338,"https://www.google.com/maps?q=23.7216876,90.3880338"
Mary Fast Food,Restaurant,fast_food,Elephant Road,N/A,N/A,N/A,10:00-20:00,N/A,23.7348436,90.3850787,"https://www.google.com/maps?q=23.7348436,90.3850787"
Food Village,Restaurant,regional,Elephant Road,N/A,N/A,N/A,09:00-22:00,N/A,23.7351899,90.3850207,"https://www.google.com/maps?q=23.7351899,90.3850207"
Vanichia Fist Food,Fast Food,N/A,Elephant Road,Shahid Janani Jahanara Imam Sarani,N/A,N/A,10:00-20:00,N/A,23.7345615,90.3848244,"https://www.google.com/maps?q=23.7345615,90.3848244"
Food Gardan,Fast Food,N/A,Elephant Road,Shahid Janani Jahanara Imam Sarani,N/A,N/A,10:00-20:00,N/A,23.7345979,90.3848465,"https://www.google.com/maps?q=23.7345979,90.3848465"
MINA BAZER,Fast Food,regional,Elephant Road,Shahid Janani Jahanara Imam Sarani,N/A,N/A,N/A,N/A,23.7353557,90.3852197,"https://www.google.com/maps?q=23.7353557,90.3852197"
Rose Haben,Restaurant,N/A,Elephant Road,N/A,N/A,N/A,09:00-22:00,N/A,23.7353017,90.3851781,"https://www.google.com/maps?q=23.7353017,90.3851781"
Cranberry The Dalicatessen,Fast Food,N/A,Elephant Road,"4/14, Shahid Janani Jahanara Imam Sarani",N/A,N/A,10:00-20:00,N/A,23.7347124,90.3849391,"https://www.google.com/maps?q=23.7347124,90.3849391"
Camallia Fast Food,Fast Food,N/A,Elephant Road,Shahid Janani Jahanara Imam Sarani,N/A,N/A,10:00-20:00,N/A,23.7349282,90.3850856,"https://www.google.com/maps?q=23.7349282,90.3850856"
Gaosia Restrurent,Restaurant,"burger,Pizza,Chinis,",Elephant Road,Elephant road,N/A,N/A,09:00-22:00,N/A,23.7356233,90.385598,"https://www.google.com/maps?q=23.7356233,90.385598"
Churoy Bath Resturant,Restaurant,regional,Elephant Road,N/A,N/A,N/A,09:00-22:00,N/A,23.7359042,90.3857027,"https://www.google.com/maps?q=23.7359042,90.3857027"
foot Village Restaurant,Restaurant,N/A,Elephant Road,Elephant Road,N/A,N/A,10:00-23:00,N/A,23.7356727,90.3854773,"https://www.google.com/maps?q=23.7356727,90.3854773"
Pafin Mini Chainese & Thai Food,Restaurant,N/A,Old Dhaka,N/A,N/A,N/A,N/A,N/A,23.7199183,90.39026,"https://www.google.com/maps?q=23.7199183,90.39026"
Nannar Biriani,Restaurant,regional,Lalbagh,Posta Road,N/A,N/A,N/A,N/A,23.720104,90.389618,"https://www.google.com/maps?q=23.720104,90.389618"
Cafeteria,Cafe,N/A,Elephant Road,"32/2, Mirpur Road",N/A,N/A,"Mo-Th,Sa-Su 10:00-22:00",N/A,23.7374807,90.3841774,"https://www.google.com/maps?q=23.7374807,90.3841774"
Chadpur Hotel,Food Court,N/A,Jatrabari,N/A,N/A,N/A,N/A,N/A,23.7152484,90.4258086,"https://www.google.com/maps?q=23.7152484,90.4258086"
Deloar and Aziz Tea Stall,Cafe,N/A,Elephant Road,N/A,N/A,N/A,N/A,N/A,23.7341868,90.383565,"https://www.google.com/maps?q=23.7341868,90.383565"
Tripty Hotel,Food Court,N/A,New Market,N/A,N/A,N/A,N/A,N/A,23.7338157,90.382847,"https://www.google.com/maps?q=23.7338157,90.382847"
Sat Vai Restora,Restaurant,regional,Mohammadpur,Road No. 1,N/A,N/A,N/A,N/A,23.7613891,90.3563053,"https://www.google.com/maps?q=23.7613891,90.3563053"
premium cafe,Fast Food,coffee_shop;fast_food,Dhanmondi,"67, Satmasjid Road",N/A,N/A,N/A,N/A,23.7496528,90.3686125,"https://www.google.com/maps?q=23.7496528,90.3686125"
Razzak Jilapi,Fast Food,regional,Other Dhaka,আউটার সার্কুলার রোড,N/A,N/A,10:00-22:00,N/A,23.7440756,90.4145856,"https://www.google.com/maps?q=23.7440756,90.4145856"
Sung Garden,Restaurant,chinese,Shahbagh,"6/a, Eskaton Garden Road",N/A,N/A,N/A,N/A,23.746047,90.3997027,"https://www.google.com/maps?q=23.746047,90.3997027"
Solna,Fast Food,N/A,Gulshan,"67/7, Bir Uttam A. K. Khandakar Road",N/A,N/A,N/A,N/A,23.7803157,90.4067762,"https://www.google.com/maps?q=23.7803157,90.4067762"
Cinnamon,Restaurant,N/A,Gulshan,Bir Uttam A. K. Khandakar Road,N/A,N/A,N/A,N/A,23.7802773,90.4067739,"https://www.google.com/maps?q=23.7802773,90.4067739"
Chillox,Fast Food,burger,Gulshan,N/A,+8801626509670,N/A,Sa-Th 10:00-22:00,N/A,23.7799487,90.4068842,"https://www.google.com/maps?q=23.7799487,90.4068842"
Ariston,Fast Food,N/A,Gulshan,N/A,+8801920784483,N/A,Sa-Th 10:00-21:30,N/A,23.7808319,90.4069322,"https://www.google.com/maps?q=23.7808319,90.4069322"
Alif Restaurant and Juice Bar,Fast Food,N/A,Gulshan,Road 3 Niketon Block A,N/A,N/A,N/A,N/A,23.7757772,90.4119385,"https://www.google.com/maps?q=23.7757772,90.4119385"
Jadubhai Tehari House,Food Court,N/A,Gulshan,N/A,N/A,N/A,N/A,N/A,23.7806615,90.4079772,"https://www.google.com/maps?q=23.7806615,90.4079772"
Mariation Dhaka,Fast Food,N/A,Gulshan,N/A,N/A,N/A,Sa-Th 10:00-21:30,N/A,23.7807392,90.4069265,"https://www.google.com/maps?q=23.7807392,90.4069265"
Old Town Kabab,Fast Food,N/A,Gulshan,N/A,N/A,N/A,N/A,N/A,23.7808629,90.4069364,"https://www.google.com/maps?q=23.7808629,90.4069364"
Shariyatpur Kabab Ghor,Fast Food,N/A,Gulshan,N/A,+8801785961735,N/A,Sa-Th 10:00-21:30,N/A,23.7807723,90.4069288,"https://www.google.com/maps?q=23.7807723,90.4069288"
Mokarrom Bhaban Canteen,Restaurant,N/A,Chawkbazar,N/A,N/A,N/A,N/A,N/A,23.7288036,90.3992426,"https://www.google.com/maps?q=23.7288036,90.3992426"
ভাষা ক্যাফে,Restaurant,regional,Elephant Road,N/A,N/A,N/A,"Mo-Th,Sa-Su 09:00-21:00; Fr off",N/A,23.7336898,90.3940014,"https://www.google.com/maps?q=23.7336898,90.3940014"
শহিউদ্দিন হল ক্যান্টিন,Restaurant,regional,Old Dhaka,N/A,N/A,N/A,N/A,N/A,23.7249886,90.4025341,"https://www.google.com/maps?q=23.7249886,90.4025341"
Shawrma King,Restaurant,regional,Bashabo,N/A,N/A,N/A,N/A,N/A,23.7620016,90.436514,"https://www.google.com/maps?q=23.7620016,90.436514"
Hungry Bell,Restaurant,regional,Bashabo,N/A,N/A,N/A,N/A,N/A,23.7613901,90.4364119,"https://www.google.com/maps?q=23.7613901,90.4364119"
Off Track Musical Cafe,Restaurant,N/A,Old Dhaka,N/A,N/A,N/A,N/A,N/A,23.7184466,90.4166038,"https://www.google.com/maps?q=23.7184466,90.4166038"
Foodland,Restaurant,N/A,Motijheel,N/A,N/A,N/A,N/A,N/A,23.7202517,90.4181059,"https://www.google.com/maps?q=23.7202517,90.4181059"
QFC,Restaurant,N/A,Old Dhaka,N/A,N/A,N/A,N/A,N/A,23.7194308,90.4207404,"https://www.google.com/maps?q=23.7194308,90.4207404"
পিজা হাট,Restaurant,pizza,Old Dhaka,N/A,N/A,N/A,N/A,N/A,23.7162579,90.4160823,"https://www.google.com/maps?q=23.7162579,90.4160823"
Delhi Darbar,Fast Food,N/A,Malibagh,Shahid Baki Sarak,N/A,N/A,N/A,N/A,23.7521488,90.4169021,"https://www.google.com/maps?q=23.7521488,90.4169021"
Al Kaderia Restaurant,Fast Food,N/A,Malibagh,Shahid Baki Sarak,N/A,N/A,N/A,N/A,23.7521791,90.4169045,"https://www.google.com/maps?q=23.7521791,90.4169045"
Abul Hotel,Restaurant,N/A,Malibagh,ডিআইটি সড়ক,N/A,N/A,N/A,N/A,23.7546393,90.4153943,"https://www.google.com/maps?q=23.7546393,90.4153943"
Babor Ali Biriani House,Food Court,N/A,Jatrabari,N/A,N/A,N/A,N/A,N/A,23.7178277,90.425397,"https://www.google.com/maps?q=23.7178277,90.425397"
Biancaffè,Restaurant,chinese,Gulshan,"43, Road 35",N/A,N/A,Su-Fr 10:00-23:00,N/A,23.7881668,90.4144571,"https://www.google.com/maps?q=23.7881668,90.4144571"
KFC,Fast Food,N/A,Shahbagh,"17, কাজী নজরুল ইসলাম সরণী",N/A,N/A,N/A,N/A,23.7438582,90.3917362,"https://www.google.com/maps?q=23.7438582,90.3917362"
বিউটি বোর্ডিং,Cafe,N/A,Old Dhaka,N/A,N/A,N/A,N/A,N/A,23.7067268,90.4135965,"https://www.google.com/maps?q=23.7067268,90.4135965"
Dosa Express,Restaurant,indian,Other Dhaka,N/A,N/A,N/A,N/A,N/A,23.7420463,90.4100223,"https://www.google.com/maps?q=23.7420463,90.4100223"
Izumi Japanese Restaurant,Restaurant,N/A,Farmgate,N/A,N/A,N/A,N/A,N/A,23.7709069,90.3938312,"https://www.google.com/maps?q=23.7709069,90.3938312"
Grounds,Cafe,N/A,Other Dhaka,"145, New Baily Road",N/A,N/A,N/A,N/A,23.7412767,90.4090002,"https://www.google.com/maps?q=23.7412767,90.4090002"
Probortona,Restaurant,asian,Mohammadpur,N/A,N/A,N/A,N/A,N/A,23.7630641,90.3701382,"https://www.google.com/maps?q=23.7630641,90.3701382"
Midnight Sun Restaurant,Restaurant,chinese,Mohammadpur,N/A,N/A,N/A,N/A,N/A,23.7589388,90.3734018,"https://www.google.com/maps?q=23.7589388,90.3734018"
Burger King,Fast Food,burger,Banani,Road 11,N/A,N/A,N/A,N/A,23.7910646,90.4035109,"https://www.google.com/maps?q=23.7910646,90.4035109"
তেহারি অন হুইল,Restaurant,N/A,Banani,N/A,N/A,N/A,N/A,N/A,23.7959571,90.4009633,"https://www.google.com/maps?q=23.7959571,90.4009633"
Adi Moron Chand Ghosh and Sons Mistanno Vandar,Restaurant,N/A,Old Dhaka,"18, Nawabpur Rd",N/A,N/A,Mo-Su 08:00-22:00,N/A,23.7149822,90.4115215,"https://www.google.com/maps?q=23.7149822,90.4115215"
Madchef,Restaurant,burger,Hazaribagh,N/A,N/A,N/A,N/A,N/A,23.744539,90.3720707,"https://www.google.com/maps?q=23.744539,90.3720707"
Gelato,Restaurant,ice_cream,Hazaribagh,N/A,N/A,N/A,N/A,N/A,23.744525,90.372092,"https://www.google.com/maps?q=23.744525,90.372092"
Glazed,Restaurant,donut,Hazaribagh,N/A,N/A,N/A,N/A,N/A,23.7446035,90.3721018,"https://www.google.com/maps?q=23.7446035,90.3721018"
Nanna Biriyani,Restaurant,indian;bagel,Mirpur,avenue 1,N/A,N/A,Mo-Su 09:00-22:00,N/A,23.8098693,90.3705261,"https://www.google.com/maps?q=23.8098693,90.3705261"
Pizza Hut,Restaurant,pizza,Mirpur,Mirpur 2,N/A,N/A,Mo-Su 10:00-22:00,N/A,23.8002834,90.3555137,"https://www.google.com/maps?q=23.8002834,90.3555137"
Deshi Ahar,Restaurant,N/A,Mirpur,N/A,N/A,N/A,N/A,N/A,23.8030166,90.3700962,"https://www.google.com/maps?q=23.8030166,90.3700962"
ঢাকা ফ্রাইড চিকেন,Restaurant,N/A,Old Dhaka,N/A,N/A,N/A,N/A,N/A,23.7198094,90.4183462,"https://www.google.com/maps?q=23.7198094,90.4183462"
Beauty Lacchi Ghor & Faluda,Restaurant,regional,Old Dhaka,Johnson Road,N/A,N/A,08:00-11:00,N/A,23.7128818,90.4114201,"https://www.google.com/maps?q=23.7128818,90.4114201"
Durga Hotel,Restaurant,N/A,Lalbagh,N/A,N/A,N/A,N/A,N/A,23.7230075,90.3894209,"https://www.google.com/maps?q=23.7230075,90.3894209"
Shomsher Ali'r Vuna Khichuri,Restaurant,regional,Old Dhaka,"118, Bangshal Road",N/A,N/A,N/A,N/A,23.7179016,90.4025172,"https://www.google.com/maps?q=23.7179016,90.4025172"
Nurani Cold Drinks,Restaurant,regional,Old Dhaka,1 No. Chawak Circular Road,N/A,N/A,N/A,N/A,23.7160514,90.3965239,"https://www.google.com/maps?q=23.7160514,90.3965239"
Alauddin Sweetmeat,Restaurant,N/A,Old Dhaka,1 No. Chawak Circular Road,N/A,N/A,N/A,N/A,23.7161861,90.3960086,"https://www.google.com/maps?q=23.7161861,90.3960086"
Bombay Sweets & Chanachur,Restaurant,N/A,Old Dhaka,urdu road,N/A,N/A,N/A,N/A,23.7164322,90.3961286,"https://www.google.com/maps?q=23.7164322,90.3961286"
Dhaka Misti Ghor,Restaurant,N/A,Old Dhaka,"9/1, Kazi Alauddin Road",N/A,N/A,N/A,N/A,23.7192979,90.406853,"https://www.google.com/maps?q=23.7192979,90.406853"
Bismillah Kabab Ghar,Restaurant,regional,Old Dhaka,Kazi Alauddin Road,N/A,N/A,N/A,N/A,23.7203648,90.4061538,"https://www.google.com/maps?q=23.7203648,90.4061538"
Jorpul Lane Taki Puri-Khan Hotel,Restaurant,N/A,Old Dhaka,"14/15, Tipu Sultan Rd",N/A,N/A,N/A,N/A,23.715262,90.4144946,"https://www.google.com/maps?q=23.715262,90.4144946"
Vishnupriya Vojanalay,Restaurant,N/A,Old Dhaka,"Rakhal Chandra Basak Lane, Tatibazar",N/A,N/A,N/A,N/A,23.7115134,90.4081768,"https://www.google.com/maps?q=23.7115134,90.4081768"
বিউটি বোর্ডিং,Restaurant,regional,Old Dhaka,শ্রীশদাস লেন,N/A,N/A,N/A,N/A,23.7063302,90.4131071,"https://www.google.com/maps?q=23.7063302,90.4131071"
Buddur Purir Dokan,Restaurant,N/A,Postogola,Hemendra Das Road,N/A,N/A,N/A,N/A,23.7057188,90.4177691,"https://www.google.com/maps?q=23.7057188,90.4177691"
Rahmania Kabab Ghor,Restaurant,N/A,Postogola,Distilary Road,N/A,N/A,N/A,N/A,23.705856,90.4202542,"https://www.google.com/maps?q=23.705856,90.4202542"
New  Cafe Corner,Restaurant,regional,Old Dhaka,"28, North Brook Hall Road",N/A,N/A,N/A,N/A,23.7061178,90.4123504,"https://www.google.com/maps?q=23.7061178,90.4123504"
ISKCON Govinda Hotel,Restaurant,N/A,Jatrabari,Koarti Tola Road,N/A,N/A,N/A,N/A,23.713786,90.4227914,"https://www.google.com/maps?q=23.713786,90.4227914"
New Purnima Snacks Bar,Restaurant,N/A,Dholaikhal,"18, Banga Bandhu Ave",N/A,N/A,N/A,N/A,23.7264808,90.4115509,"https://www.google.com/maps?q=23.7264808,90.4115509"
Campus Shadow of University of Dhaka,Restaurant,N/A,Elephant Road,Across Mall Chottor,N/A,N/A,Su-Th 08:00-18:00,N/A,23.7343559,90.3920322,"https://www.google.com/maps?q=23.7343559,90.3920322"
মামা হোটেল,Restaurant,regional,Elephant Road,বিএসসি কোয়ার্টার পথ,N/A,N/A,N/A,N/A,23.7339984,90.3869257,"https://www.google.com/maps?q=23.7339984,90.3869257"
Rabbani Hotel and Restaurant,Restaurant,regional,Mirpur,"1/1 Mirpur Rd, Begum Rokeya Sharani",N/A,N/A,"PH,Mo-Su 07:00-23:00",N/A,23.8158344,90.3662892,"https://www.google.com/maps?q=23.8158344,90.3662892"
"Beauty Lacchi , Faluda & Kacchi Biriani",Restaurant,regional,Old Dhaka,Kazi Alauddin Road,N/A,N/A,N/A,N/A,23.7216115,90.4057451,"https://www.google.com/maps?q=23.7216115,90.4057451"
Shahi Muri Vorta / শাহী মুড়ি ভর্তা,Restaurant,regional,Gulshan,গুলশান লিংক রোড,N/A,N/A,N/A,N/A,23.7802698,90.4210787,"https://www.google.com/maps?q=23.7802698,90.4210787"
Bismillah Dilli Kabab / বিসমিল্লাহ্ দিল্লি কাবাব,Restaurant,N/A,Old Dhaka,N/A,N/A,N/A,N/A,N/A,23.7087541,90.3933503,"https://www.google.com/maps?q=23.7087541,90.3933503"
Barisal Muslim Hotel,Restaurant,N/A,Old Dhaka,Nawabpur Rd,N/A,N/A,N/A,N/A,23.7206208,90.4111897,"https://www.google.com/maps?q=23.7206208,90.4111897"
Chourangi Hotel,Restaurant,N/A,Old Dhaka,"47, North Brook Hall Road",N/A,N/A,N/A,N/A,23.7062633,90.4124774,"https://www.google.com/maps?q=23.7062633,90.4124774"
Ananda Confectionery,Restaurant,N/A,Old Dhaka,Abul Hasnat Road,N/A,N/A,N/A,N/A,23.7184295,90.4001135,"https://www.google.com/maps?q=23.7184295,90.4001135"
Aftab Restaurant,Restaurant,N/A,Old Dhaka,N/A,N/A,N/A,N/A,N/A,23.7234387,90.4001501,"https://www.google.com/maps?q=23.7234387,90.4001501"
Haji Biriyani,Restaurant,N/A,Old Dhaka,Kazi Alauddin Road,N/A,N/A,N/A,N/A,23.7207407,90.4058262,"https://www.google.com/maps?q=23.7207407,90.4058262"
Rasel Hotel,Restaurant,N/A,Old Dhaka,Narinda Road,N/A,N/A,N/A,N/A,23.711501,90.4184449,"https://www.google.com/maps?q=23.711501,90.4184449"
Shahi Dilli Sweets,Restaurant,N/A,Old Dhaka,Islampur Road,N/A,N/A,N/A,N/A,23.7104516,90.4056978,"https://www.google.com/maps?q=23.7104516,90.4056978"
Sultan Mama Tea Stall,Cafe,N/A,Old Dhaka,N/A,N/A,N/A,N/A,N/A,23.7097724,90.4126628,"https://www.google.com/maps?q=23.7097724,90.4126628"
Kichukhon Restora,Restaurant,N/A,Postogola,Keshab Benarjee Road,N/A,N/A,N/A,N/A,23.7010482,90.4204872,"https://www.google.com/maps?q=23.7010482,90.4204872"
Shahi Juice Corner,Restaurant,N/A,Lalbagh,Shaista Khan Road,N/A,N/A,N/A,N/A,23.7176979,90.3897448,"https://www.google.com/maps?q=23.7176979,90.3897448"
Royal Hotel,Restaurant,N/A,Old Dhaka,Haronath Ghosh Road,N/A,N/A,N/A,N/A,23.7195772,90.3905335,"https://www.google.com/maps?q=23.7195772,90.3905335"
Pizza SQUARE,Fast Food,N/A,Mohammadpur,N/A,N/A,N/A,N/A,N/A,23.7586836,90.3623687,"https://www.google.com/maps?q=23.7586836,90.3623687"
Shohag Restaurant,Restaurant,N/A,Old Dhaka,Najimuddin Road,N/A,N/A,N/A,N/A,23.7230466,90.4000164,"https://www.google.com/maps?q=23.7230466,90.4000164"
Nirob Hotel,Restaurant,N/A,Old Dhaka,N/A,N/A,N/A,N/A,N/A,23.7208706,90.3987309,"https://www.google.com/maps?q=23.7208706,90.3987309"
বিউটি বোর্ডিং,Cafe,N/A,Postogola,"1 Shris Das Ln, Poschim Jurain Graveyard Rod",+8801979090631,N/A,N/A,N/A,23.6940397,90.4257216,"https://www.google.com/maps?q=23.6940397,90.4257216"
Labini Restaurant,Restaurant,regional,Old Dhaka,N/A,N/A,N/A,N/A,N/A,23.6957951,90.398858,"https://www.google.com/maps?q=23.6957951,90.398858"
Sugandha Restaurant,Restaurant,asian,Motijheel,N/A,N/A,N/A,N/A,N/A,23.7284617,90.4158014,"https://www.google.com/maps?q=23.7284617,90.4158014"
Urban Spice,Restaurant,regional,Gulshan,N/A,N/A,N/A,N/A,N/A,23.7903627,90.4089819,"https://www.google.com/maps?q=23.7903627,90.4089819"
ক্যাফে বাগদাদ রেস্টুরেন্ট,Restaurant,N/A,Dholaikhal,N/A,N/A,N/A,N/A,N/A,23.7301622,90.4081721,"https://www.google.com/maps?q=23.7301622,90.4081721"
Illusion Food & Music,Restaurant,N/A,Uttara West,N/A,N/A,N/A,N/A,N/A,23.87102,90.38372,"https://www.google.com/maps?q=23.87102,90.38372"
Bukhara,Restaurant,N/A,Gulshan,N/A,N/A,N/A,N/A,N/A,23.7934618,90.4057071,"https://www.google.com/maps?q=23.7934618,90.4057071"
Peyala,Cafe,coffee_shop,Panthapath,N/A,N/A,N/A,N/A,N/A,23.750246,90.3935666,"https://www.google.com/maps?q=23.750246,90.3935666"
Panshee,Restaurant,regional,Dhanmondi,Road 10,N/A,N/A,10:00-22:00,N/A,23.7450829,90.3783531,"https://www.google.com/maps?q=23.7450829,90.3783531"
The Mirror - A Taste Of Fusion Cuisine,Restaurant,N/A,Dhanmondi,Road 8,N/A,N/A,N/A,N/A,23.7455604,90.3795098,"https://www.google.com/maps?q=23.7455604,90.3795098"
Eat and Enjoy,Restaurant,N/A,Malibagh,N/A,N/A,N/A,N/A,N/A,23.7504291,90.4162675,"https://www.google.com/maps?q=23.7504291,90.4162675"
Lailaty,Restaurant,asian,Dhanmondi,N/A,N/A,N/A,N/A,N/A,23.7402052,90.3753157,"https://www.google.com/maps?q=23.7402052,90.3753157"
Deshbandhu Sweetmeat and Restaurant,Restaurant,N/A,Motijheel,Toyenbee Road,N/A,N/A,N/A,N/A,23.721702,90.4210878,"https://www.google.com/maps?q=23.721702,90.4210878"
Purbachal Misti Bazar,Restaurant,N/A,Other Dhaka,N/A,N/A,N/A,N/A,N/A,23.8364312,90.4839917,"https://www.google.com/maps?q=23.8364312,90.4839917"
Mohammadia Restaurant,Restaurant,N/A,Mohammadpur,N/A,N/A,N/A,N/A,N/A,23.756705,90.361208,"https://www.google.com/maps?q=23.756705,90.361208"
Banolata Food Palace,Restaurant,ice_cream;cake;coffee_shop;asian;fish_and_chips;diner;chicken;curry;thai;fish;breakfast;tea;chinese,Mirpur,"Plot 6, Main road 3, Sector 7, Mirpur",+8801938830710,https://www.banolatafoodpalace.com/,Mo-Su 11:00-23:00,N/A,23.8166463,90.3657071,"https://www.google.com/maps?q=23.8166463,90.3657071"
Aroma Restaurant,Restaurant,N/A,Other Dhaka,N/A,N/A,N/A,N/A,N/A,23.854922,90.4042205,"https://www.google.com/maps?q=23.854922,90.4042205"
Falguni restarurant,Restaurant,asian,Uttara,N/A,N/A,N/A,N/A,N/A,23.8809145,90.4005052,"https://www.google.com/maps?q=23.8809145,90.4005052"
Hotel De Maridian & Restaurant,Restaurant,N/A,Uttara,N/A,N/A,N/A,N/A,N/A,23.8723453,90.4009136,"https://www.google.com/maps?q=23.8723453,90.4009136"
Spring Onion,Restaurant,N/A,Uttara,N/A,N/A,N/A,N/A,N/A,23.8747348,90.4001856,"https://www.google.com/maps?q=23.8747348,90.4001856"
Att-Tin,Fast Food,N/A,Mirpur,Road 23,N/A,N/A,N/A,N/A,23.8170464,90.3538063,"https://www.google.com/maps?q=23.8170464,90.3538063"
Coffee Express,Cafe,N/A,Mirpur,Road 23,N/A,N/A,N/A,N/A,23.8170377,90.3539708,"https://www.google.com/maps?q=23.8170377,90.3539708"
Marwa Kebab and Restaurant,Restaurant,regional,Cantonment,"Plot No 2/A, Road 13, Nikunja 2,khilkhet",028900470,N/A,06:00-23:00,N/A,23.8331557,90.4182261,"https://www.google.com/maps?q=23.8331557,90.4182261"
Banoful Sweet Shop,Restaurant,N/A,Postogola,N/A,N/A,N/A,N/A,N/A,23.6939579,90.4344885,"https://www.google.com/maps?q=23.6939579,90.4344885"
Spice N Ice Restaurant,Restaurant,regional;chinese,Jatrabari,Dhaka-Mawa Highway,N/A,N/A,N/A,N/A,23.7023191,90.4351258,"https://www.google.com/maps?q=23.7023191,90.4351258"
Sharma House,Restaurant,regional;pizza;burger;chinese,Jatrabari,N/A,N/A,N/A,N/A,N/A,23.7026043,90.4350247,"https://www.google.com/maps?q=23.7026043,90.4350247"
Food Craze,Restaurant,N/A,Jatrabari,N/A,N/A,N/A,N/A,N/A,23.7028659,90.4350019,"https://www.google.com/maps?q=23.7028659,90.4350019"
Shanghai Chinese Restaurant & Party Center,Restaurant,regional;chinese,Jatrabari,"99, Dhaka-Mawa Highway",+8801924748437,N/A,N/A,N/A,23.7026928,90.4350153,"https://www.google.com/maps?q=23.7026928,90.4350153"
Mohan Fast Food,Fast Food,regional,Jatrabari,N/A,N/A,N/A,N/A,N/A,23.7029838,90.4349643,"https://www.google.com/maps?q=23.7029838,90.4349643"
Food Festa,Restaurant,N/A,Jatrabari,N/A,N/A,N/A,N/A,N/A,23.7049765,90.4347482,"https://www.google.com/maps?q=23.7049765,90.4347482"
Basilico,Restaurant,N/A,Malibagh,"399/B, Shahid Baki Sarak",+8801745150775,N/A,N/A,N/A,23.75251,90.41739,"https://www.google.com/maps?q=23.75251,90.41739"
Nur Sweetmeat and Restaurant নুর সুইটমিট এন্ড রেষ্টুরেন্ট,Restaurant,N/A,Uttara,N/A,N/A,N/A,N/A,N/A,23.8841748,90.4007668,"https://www.google.com/maps?q=23.8841748,90.4007668"
Nur Biriyani House নূর বিরিয়ানী হাউজ,Restaurant,N/A,Uttara,N/A,N/A,N/A,N/A,N/A,23.8841085,90.4007963,"https://www.google.com/maps?q=23.8841085,90.4007963"
Hajari Tea Stall হাজারী! টি স্টল,Cafe,N/A,Uttara,N/A,N/A,N/A,N/A,N/A,23.8844311,90.4005839,"https://www.google.com/maps?q=23.8844311,90.4005839"
Classic Food ক্লাসিক ফুড,Restaurant,N/A,Uttara,N/A,N/A,N/A,N/A,N/A,23.8860777,90.399273,"https://www.google.com/maps?q=23.8860777,90.399273"
Coffee House & Food Corner কফি হাউস এন্ড ফুড কর্ণার,Restaurant,N/A,Uttara,N/A,N/A,N/A,N/A,N/A,23.8861779,90.3994113,"https://www.google.com/maps?q=23.8861779,90.3994113"
"Ishak,Irfan Fast food Corner ইশাক,ইরফান ফাস্ট ফুড কর্নার",Cafe,N/A,Uttara,N/A,N/A,N/A,N/A,N/A,23.8963733,90.398952,"https://www.google.com/maps?q=23.8963733,90.398952"
bbq bangladesh,Restaurant,mexican,Dhanmondi,N/A,N/A,N/A,N/A,N/A,23.7494814,90.3687532,"https://www.google.com/maps?q=23.7494814,90.3687532"
rice & noodle dhanmondi,Restaurant,chinese;korean,Dhanmondi,N/A,N/A,N/A,N/A,N/A,23.7495082,90.3688241,"https://www.google.com/maps?q=23.7495082,90.3688241"
Chatime,Cafe,tea;smoothies,Dhanmondi,Dhanmondi 9/A,N/A,N/A,N/A,N/A,23.7494913,90.3688256,"https://www.google.com/maps?q=23.7494913,90.3688256"
Lalbag hotel,Restaurant,bangladeshi,Rayer Bazar,N/A,N/A,N/A,N/A,N/A,23.7501867,90.3671191,"https://www.google.com/maps?q=23.7501867,90.3671191"
Ancholik khana,Restaurant,bangladeshi,Rayer Bazar,N/A,N/A,N/A,N/A,N/A,23.749558,90.3654854,"https://www.google.com/maps?q=23.749558,90.3654854"
Pizza Inn,Restaurant,pizza;italian,Dhanmondi,N/A,N/A,N/A,N/A,N/A,23.7494474,90.3687728,"https://www.google.com/maps?q=23.7494474,90.3687728"
Kabab Karigor & Soup,Fast Food,spaicy;soup;kebab,Dhanmondi,N/A,N/A,N/A,N/A,N/A,23.7467102,90.3774509,"https://www.google.com/maps?q=23.7467102,90.3774509"
Pizza Hut,Restaurant,pizza,Dhanmondi,Dhanmondi Road 3,N/A,N/A,"Mo-Su,PH 11:00-22:00",N/A,23.7403304,90.3827009,"https://www.google.com/maps?q=23.7403304,90.3827009"
Chillox,Restaurant,burger,Other Dhaka,Jigatola Main Road,N/A,N/A,N/A,N/A,23.739389,90.3752158,"https://www.google.com/maps?q=23.739389,90.3752158"
C mainor,Restaurant,N/A,Other Dhaka,N/A,N/A,N/A,N/A,N/A,23.7393539,90.3751871,"https://www.google.com/maps?q=23.7393539,90.3751871"
biye bari,Restaurant,bangladeshi,Other Dhaka,Jigatola Main Road,N/A,N/A,N/A,N/A,23.7393831,90.3751744,"https://www.google.com/maps?q=23.7393831,90.3751744"
trump cafe,Restaurant,N/A,Other Dhaka,N/A,N/A,N/A,N/A,N/A,23.7393656,90.3751552,"https://www.google.com/maps?q=23.7393656,90.3751552"
hot shef,Restaurant,N/A,Hazaribagh,N/A,N/A,N/A,N/A,N/A,23.7445929,90.372124,"https://www.google.com/maps?q=23.7445929,90.372124"
glambers,Restaurant,pizza;pasta;burger,Other Dhaka,Jigatola Main Road,N/A,N/A,N/A,N/A,23.7393612,90.3752063,"https://www.google.com/maps?q=23.7393612,90.3752063"
d cafe,Restaurant,N/A,Hazaribagh,75,N/A,N/A,N/A,N/A,23.7417682,90.3737914,"https://www.google.com/maps?q=23.7417682,90.3737914"
ghuha,Restaurant,N/A,Hazaribagh,N/A,N/A,N/A,N/A,N/A,23.7445608,90.3721368,"https://www.google.com/maps?q=23.7445608,90.3721368"
Vampire cafe,Restaurant,N/A,Hazaribagh,N/A,N/A,N/A,N/A,N/A,23.7445783,90.3721687,"https://www.google.com/maps?q=23.7445783,90.3721687"
vorta bari,Restaurant,bangladeshi,Hazaribagh,N/A,N/A,N/A,N/A,N/A,23.7442265,90.3730841,"https://www.google.com/maps?q=23.7442265,90.3730841"
pasta state,Restaurant,pasta;italian_pizza,Hazaribagh,N/A,N/A,N/A,N/A,N/A,23.7441958,90.3730251,"https://www.google.com/maps?q=23.7441958,90.3730251"
bfc,Restaurant,N/A,Dhanmondi,N/A,N/A,N/A,N/A,N/A,23.7475842,90.370105,"https://www.google.com/maps?q=23.7475842,90.370105"
Dhaba,Restaurant,indian,Dhanmondi,"54, Road 10A",+880 1783-391571,N/A,N/A,N/A,23.7461357,90.3717706,"https://www.google.com/maps?q=23.7461357,90.3717706"
Red flame,Restaurant,N/A,Dhanmondi,N/A,N/A,N/A,N/A,N/A,23.7460719,90.3710652,"https://www.google.com/maps?q=23.7460719,90.3710652"
ranna kabab,Restaurant,N/A,Dhanmondi,N/A,N/A,N/A,N/A,N/A,23.7460416,90.3711787,"https://www.google.com/maps?q=23.7460416,90.3711787"
hangout,Restaurant,N/A,Dhanmondi,N/A,N/A,N/A,N/A,N/A,23.7461014,90.371135,"https://www.google.com/maps?q=23.7461014,90.371135"
dark,Restaurant,N/A,Dhanmondi,N/A,N/A,N/A,N/A,N/A,23.7459771,90.3710279,"https://www.google.com/maps?q=23.7459771,90.3710279"
Karbooz,Restaurant,N/A,Dhanmondi,N/A,N/A,N/A,N/A,N/A,23.7451168,90.3717787,"https://www.google.com/maps?q=23.7451168,90.3717787"
Tabaq Coffee,Cafe,N/A,Gulshan,N/A,N/A,N/A,N/A,N/A,23.7775189,90.4167505,"https://www.google.com/maps?q=23.7775189,90.4167505"
ঝিলমিল রেস্ট্যুরেন্ট,Restaurant,N/A,Niketan,N/A,N/A,N/A,N/A,N/A,23.7719476,90.4182888,"https://www.google.com/maps?q=23.7719476,90.4182888"
Secret Recipe,Fast Food,cake;malaysian,Gulshan,Gulshan - 2 Circle,N/A,N/A,N/A,N/A,23.79517,90.4140722,"https://www.google.com/maps?q=23.79517,90.4140722"
Gloria Jean’s Coffee,Cafe,N/A,Gulshan,N/A,N/A,N/A,N/A,N/A,23.7791759,90.4164645,"https://www.google.com/maps?q=23.7791759,90.4164645"
পিজা ইটালিয়ানা,Restaurant,N/A,Gulshan,"76, Gulshan Avenu",N/A,N/A,N/A,N/A,23.7841611,90.417157,"https://www.google.com/maps?q=23.7841611,90.417157"
La Nuit - Fusion Restaurant,Restaurant,N/A,Gulshan,N/A,N/A,N/A,N/A,N/A,23.7930431,90.4152899,"https://www.google.com/maps?q=23.7930431,90.4152899"
Alamin Sweets And Bakery আলামিন মিষ্টি ও বেকারি,Restaurant,N/A,Uttara,N/A,N/A,N/A,N/A,N/A,23.8935031,90.403568,"https://www.google.com/maps?q=23.8935031,90.403568"
B M Coffee House & Fast Food বি এম কফি হাউজ এন্ড ফাস্টফুড,Cafe,N/A,Uttara,N/A,N/A,N/A,N/A,N/A,23.8936149,90.4039415,"https://www.google.com/maps?q=23.8936149,90.4039415"
CP Five Star সিপি ফাইভ স্টার,Fast Food,N/A,Uttara,N/A,N/A,N/A,N/A,N/A,23.8937992,90.4040466,"https://www.google.com/maps?q=23.8937992,90.4040466"
A-show Kichu Khie Tea Stall,Cafe,N/A,Uttara,N/A,N/A,N/A,N/A,N/A,23.8956395,90.409075,"https://www.google.com/maps?q=23.8956395,90.409075"
Baker's Bay,Restaurant,N/A,Other Dhaka,N/A,N/A,N/A,N/A,N/A,23.7841264,90.3436243,"https://www.google.com/maps?q=23.7841264,90.3436243"
আর রাযযাক হোটেল এন্ড রেস্টুরেন্ট,Restaurant,N/A,Other Dhaka,N/A,N/A,N/A,N/A,N/A,23.7828581,90.3408454,"https://www.google.com/maps?q=23.7828581,90.3408454"
Zaytun Restaurant,Restaurant,N/A,Other Dhaka,N/A,N/A,N/A,Mo-Su 10:00-22:00,N/A,23.7781956,90.3804179,"https://www.google.com/maps?q=23.7781956,90.3804179"
Foods Club Restaurant,Restaurant,N/A,Rampura,"464, DIT Road",N/A,N/A,N/A,N/A,23.7663229,90.421836,"https://www.google.com/maps?q=23.7663229,90.421836"
Dao Xiang Cun,Restaurant,chinese,Gulshan,N/A,N/A,N/A,N/A,N/A,23.7923986,90.4171521,"https://www.google.com/maps?q=23.7923986,90.4171521"
Persona,Restaurant,N/A,Gulshan,"5th floor, Gulshan Avenue",N/A,N/A,N/A,N/A,23.7921432,90.4150822,"https://www.google.com/maps?q=23.7921432,90.4150822"
Fiesta,Restaurant,N/A,Gulshan,N/A,N/A,N/A,N/A,N/A,23.7930458,90.4153927,"https://www.google.com/maps?q=23.7930458,90.4153927"
CP food,Restaurant,N/A,Mohammadpur,N/A,N/A,N/A,Mo-Su 09:00-21:00,N/A,23.7893031,90.352366,"https://www.google.com/maps?q=23.7893031,90.352366"
Anand Restaurant,Restaurant,N/A,Other Dhaka,N/A,N/A,N/A,N/A,N/A,23.7761095,90.3932682,"https://www.google.com/maps?q=23.7761095,90.3932682"
Best Fried Chicken,Fast Food,N/A,Shahbagh,"1st Floor, 208, Bara Mogbazar",+880248313320,https://www.bfcbd.com/,N/A,N/A,23.7479109,90.4022828,"https://www.google.com/maps?q=23.7479109,90.4022828"
Cha Bari,Restaurant,N/A,Old Dhaka,N/A,N/A,N/A,N/A,N/A,23.7149257,90.4190445,"https://www.google.com/maps?q=23.7149257,90.4190445"
Al-Razzaque Restaurant,Restaurant,Bangladeshi,Old Dhaka,"29/1, North South Road, Bangshal, Dhaka",+8809566412,N/A,Mo-Su 06:00-24:00; PH closed,N/A,23.7182724,90.4086597,"https://www.google.com/maps?q=23.7182724,90.4086597"
দাওয়াত,Restaurant,N/A,Mohammadpur,N/A,N/A,N/A,N/A,N/A,23.7707628,90.3591542,"https://www.google.com/maps?q=23.7707628,90.3591542"
DFC Fast Food,Fast Food,asian,Other Dhaka,N/A,N/A,N/A,N/A,N/A,23.6928598,90.4510634,"https://www.google.com/maps?q=23.6928598,90.4510634"
Padma Hotel and Restaurant,Restaurant,N/A,Jatrabari,Dhaka - Demra Highway,N/A,N/A,N/A,N/A,23.7099934,90.4413863,"https://www.google.com/maps?q=23.7099934,90.4413863"
ANJUM kabab ghor,Restaurant,N/A,Motijheel,"10/1, Toyenbee circular Road",+8801881445205,N/A,08:00-23:00,N/A,23.7281167,90.4222058,"https://www.google.com/maps?q=23.7281167,90.4222058"
Seagul the dining entertainment,Restaurant,N/A,Other Dhaka,"116, Culvert Road",+8801725051576,N/A,10:00-23:00,N/A,23.7320959,90.4135584,"https://www.google.com/maps?q=23.7320959,90.4135584"
Pizza Inn,Fast Food,pizza,Other Dhaka,"2, natok Sharani",+8801765666366,N/A,10:00-23:00,N/A,23.7420158,90.4101895,"https://www.google.com/maps?q=23.7420158,90.4101895"
Mix Food,Restaurant,N/A,Other Dhaka,"Shantinagar Road,",+8801711956242,N/A,10:00-22:00,N/A,23.7399494,90.4104085,"https://www.google.com/maps?q=23.7399494,90.4104085"
Coffeelicious coffee,Restaurant,N/A,Other Dhaka,"1, natok Sharani",+8801615998996,N/A,10:00-22:00,N/A,23.7422338,90.4076085,"https://www.google.com/maps?q=23.7422338,90.4076085"
Bailey pitha,Restaurant,N/A,Other Dhaka,"15, natok sharani",+8801750950564,N/A,10:00-22:00,N/A,23.7419136,90.4095847,"https://www.google.com/maps?q=23.7419136,90.4095847"
Hakka Dhaka,Restaurant,indian,Other Dhaka,"2, natok Sharani",+8801616666543,N/A,10:00-23:00,N/A,23.7420121,90.4101435,"https://www.google.com/maps?q=23.7420121,90.4101435"
Brutown,Restaurant,N/A,Other Dhaka,"62/A, Siddeshwari Road",N/A,N/A,10:00-22:00,N/A,23.7427677,90.4075904,"https://www.google.com/maps?q=23.7427677,90.4075904"
Baker Fast Food & Pastry,Restaurant,N/A,Other Dhaka,"2, natok Sharani",+88029335950,N/A,N/A,N/A,23.7420464,90.410478,"https://www.google.com/maps?q=23.7420464,90.410478"
BFC,Restaurant,N/A,Other Dhaka,"101, Kakrail Road",+8801720087690,N/A,10:00-23:00,N/A,23.7385155,90.4090764,"https://www.google.com/maps?q=23.7385155,90.4090764"
Secret Recipe,Fast Food,cake;malaysian,Other Dhaka,"41, chamilibag",+88019609505055,N/A,10:00-23:00,N/A,23.7411446,90.4126491,"https://www.google.com/maps?q=23.7411446,90.4126491"
Royal Bakery and pastry shop,Restaurant,N/A,Other Dhaka,"89/1, Kakrail Road",+8801755987626,N/A,10:00-22:00,N/A,23.7378515,90.4089259,"https://www.google.com/maps?q=23.7378515,90.4089259"
Scoop and straw,Restaurant,N/A,Other Dhaka,"31/1, Siddheshwari circular Road",+8801634442217,N/A,10:00-23:00,N/A,23.7418346,90.4117093,"https://www.google.com/maps?q=23.7418346,90.4117093"
Cp five star,Restaurant,N/A,Other Dhaka,"87, New circular Road",N/A,N/A,N/A,N/A,23.7449451,90.4128554,"https://www.google.com/maps?q=23.7449451,90.4128554"
Coffee corner Chinese restaurant,Restaurant,N/A,Eskaton,"A/1, Siddesori circular Road",+8801795095626,N/A,10:30-22:30,N/A,23.7454864,90.4121614,"https://www.google.com/maps?q=23.7454864,90.4121614"
চাঁদপুর হোটেল,Restaurant,regional,Eskaton,"188, mailbag Bazar Road",N/A,N/A,08:00-12:00,N/A,23.7490217,90.4142432,"https://www.google.com/maps?q=23.7490217,90.4142432"
Sad biriany ghor and Restora,Restaurant,N/A,Eskaton,"A/1, siddesori circular Road",N/A,N/A,10:00-22:00,N/A,23.7453728,90.4119741,"https://www.google.com/maps?q=23.7453728,90.4119741"
Food land Bakery,Restaurant,N/A,Motijheel,"20, outer circular Road",N/A,N/A,10:00-22:00,N/A,23.7404502,90.4199385,"https://www.google.com/maps?q=23.7404502,90.4199385"
City hotel and restaurant,Restaurant,N/A,Other Dhaka,"1, chamelibagh",N/A,N/A,10:00-23:00,N/A,23.7429559,90.4133908,"https://www.google.com/maps?q=23.7429559,90.4133908"
Mallik's restaurant,Restaurant,N/A,Motijheel,"119, Shantinagar Road",+8801903152815,N/A,07:00-22:00,N/A,23.7390398,90.4153012,"https://www.google.com/maps?q=23.7390398,90.4153012"
New Jimmy's Kitchen,Restaurant,N/A,Motijheel,"9/I, Fazle Rabbi Road",+8801634778899,N/A,11:00-22:00,N/A,23.7217562,90.421439,"https://www.google.com/maps?q=23.7217562,90.421439"
Classy Dine,Restaurant,burger;sandwich;grill;ice_cream;cake;asian;coffee_shop;noodles;chicken;diner;fish_and_chips;curry;indian;fish;tea;seafood;chinese;fine_dining;kebab,Gulshan,"1/B, Road 5",+88028834177,http://www.classydine.com.bd,Mo-Su 12:00-22:00,N/A,23.7769638,90.4158211,"https://www.google.com/maps?q=23.7769638,90.4158211"
Burger King,Fast Food,burger,Gulshan,"Gulshan Tower, 31, Gulshan North",N/A,N/A,N/A,N/A,23.7954853,90.4135418,"https://www.google.com/maps?q=23.7954853,90.4135418"
BBQ Bangladesh,Restaurant,pizza;italian;chicken;mexican;korean,Cantonment,N/A,N/A,N/A,N/A,N/A,23.8002004,90.41181,"https://www.google.com/maps?q=23.8002004,90.41181"
SANXI Thai and Chinese Restaurant,Restaurant,N/A,Rampura,Road # 12,N/A,N/A,N/A,N/A,23.772896,90.4258694,"https://www.google.com/maps?q=23.772896,90.4258694"
Eat & Fit,Restaurant,N/A,Mirpur,N/A,N/A,http://eatandfitbd.com/index,Sa-Fr 10:00-20:00,N/A,23.8065564,90.3671287,"https://www.google.com/maps?q=23.8065564,90.3671287"
Grand Maharaj Kabab & Restaurent,Restaurant,N/A,Mirpur,East Shewrapara,N/A,N/A,N/A,N/A,23.7925471,90.3748958,"https://www.google.com/maps?q=23.7925471,90.3748958"
Daily Fried Chicken Store,Fast Food,N/A,Gulshan,N/A,N/A,N/A,N/A,N/A,23.7766867,90.4265468,"https://www.google.com/maps?q=23.7766867,90.4265468"
Biriyani Store,Restaurant,N/A,Gulshan,N/A,N/A,N/A,N/A,N/A,23.7768951,90.4259599,"https://www.google.com/maps?q=23.7768951,90.4259599"
A&W Restaurants,Fast Food,N/A,Gulshan,N/A,N/A,N/A,N/A,N/A,23.7820125,90.4160542,"https://www.google.com/maps?q=23.7820125,90.4160542"
Cafe Shadhin,Restaurant,N/A,Demra,N/A,N/A,N/A,N/A,N/A,23.7124916,90.4502141,"https://www.google.com/maps?q=23.7124916,90.4502141"
Akbar Hotel,Restaurant,N/A,Demra,N/A,N/A,N/A,N/A,N/A,23.7123811,90.450882,"https://www.google.com/maps?q=23.7123811,90.450882"
Rajmohol Restora & Chinese Restaurant,Restaurant,N/A,Demra,Dhaka-Demra Highway,N/A,N/A,N/A,N/A,23.7132824,90.4525544,"https://www.google.com/maps?q=23.7132824,90.4525544"
Ruchi Biriyani and Restaurants,Restaurant,N/A,Gulshan,korail,N/A,N/A,N/A,N/A,23.7862501,90.4112835,"https://www.google.com/maps?q=23.7862501,90.4112835"
Jasim Hotel,Restaurant,N/A,Gulshan,korail,N/A,N/A,N/A,N/A,23.7841835,90.4114277,"https://www.google.com/maps?q=23.7841835,90.4114277"
Barishal Hotel And Restaurant,Restaurant,N/A,Gulshan,korail,N/A,N/A,N/A,N/A,23.7829206,90.41171,"https://www.google.com/maps?q=23.7829206,90.41171"
Kitchen Room,Restaurant,N/A,Gulshan,korail,N/A,N/A,N/A,N/A,23.7837755,90.411937,"https://www.google.com/maps?q=23.7837755,90.411937"
kitchen,Restaurant,N/A,Gulshan,korail,N/A,N/A,N/A,N/A,23.7865687,90.4113801,"https://www.google.com/maps?q=23.7865687,90.4113801"
Ranna Ghar,Restaurant,N/A,Gulshan,korail,N/A,N/A,N/A,N/A,23.7821993,90.4116419,"https://www.google.com/maps?q=23.7821993,90.4116419"
Nizam Hotel,Restaurant,N/A,Gulshan,korail,N/A,N/A,N/A,N/A,23.7836288,90.4113702,"https://www.google.com/maps?q=23.7836288,90.4113702"
Al Modina Hotel and Restaurant,Restaurant,N/A,Gulshan,korail,N/A,N/A,N/A,N/A,23.7852388,90.4067588,"https://www.google.com/maps?q=23.7852388,90.4067588"
Tofazzal Cotpoti House,Fast Food,N/A,Gulshan,korail,N/A,N/A,N/A,N/A,23.785725,90.4120558,"https://www.google.com/maps?q=23.785725,90.4120558"
Rashid Hotel,Restaurant,N/A,Gulshan,korail,N/A,N/A,N/A,N/A,23.7841684,90.4119249,"https://www.google.com/maps?q=23.7841684,90.4119249"
Aawal Hotel,Restaurant,N/A,Gulshan,korail,N/A,N/A,N/A,N/A,23.7834675,90.4121768,"https://www.google.com/maps?q=23.7834675,90.4121768"
Jannat hotel,Restaurant,N/A,Gulshan,korail,N/A,N/A,N/A,N/A,23.7843374,90.4102497,"https://www.google.com/maps?q=23.7843374,90.4102497"
Hotel,Restaurant,N/A,Gulshan,korail,N/A,N/A,N/A,N/A,23.7856196,90.4065595,"https://www.google.com/maps?q=23.7856196,90.4065595"
Nurer Alo Restaurent,Restaurant,N/A,Gulshan,korail,N/A,N/A,N/A,N/A,23.7838554,90.4104078,"https://www.google.com/maps?q=23.7838554,90.4104078"
Mayer Doya Hotel,Restaurant,N/A,Gulshan,korail,N/A,N/A,N/A,N/A,23.7863454,90.4120777,"https://www.google.com/maps?q=23.7863454,90.4120777"
Mayer Doa Restaurant,Restaurant,N/A,Gulshan,korail,N/A,N/A,N/A,N/A,23.7865495,90.4125186,"https://www.google.com/maps?q=23.7865495,90.4125186"
Madina Hotel,Restaurant,N/A,Gulshan,korail,N/A,N/A,N/A,N/A,23.7865322,90.4130369,"https://www.google.com/maps?q=23.7865322,90.4130369"
Bismillah Hotel,Restaurant,N/A,Demra,N/A,N/A,N/A,N/A,N/A,23.7121245,90.4499111,"https://www.google.com/maps?q=23.7121245,90.4499111"
Kolapata Restuarant,Restaurant,kebab;chicken;fish_and_chips;indian;ice_cream;french,Cantonment,"House 13, Road No. 19",N/A,N/A,Mo-Su 09:00-21:00,N/A,23.8348998,90.4165518,"https://www.google.com/maps?q=23.8348998,90.4165518"
Tony Roma's,Restaurant,barbecue,Cantonment,N/A,N/A,N/A,N/A,N/A,23.8045792,90.4137382,"https://www.google.com/maps?q=23.8045792,90.4137382"
lemon,Cafe,N/A,Mirpur,N/A,N/A,N/A,N/A,N/A,23.8189103,90.3660288,"https://www.google.com/maps?q=23.8189103,90.3660288"
Cafe Costaba,Cafe,N/A,Malibagh,N/A,N/A,N/A,N/A,N/A,23.7510391,90.4208914,"https://www.google.com/maps?q=23.7510391,90.4208914"
Diabari Hotel & Restaurant,Restaurant,N/A,Other Dhaka,N/A,N/A,N/A,N/A,N/A,23.797356,90.3406137,"https://www.google.com/maps?q=23.797356,90.3406137"
Kayem-Chicken Fast Food,Fast Food,N/A,Other Dhaka,N/A,N/A,N/A,N/A,N/A,23.7981635,90.3377257,"https://www.google.com/maps?q=23.7981635,90.3377257"
Rubel Hotel and Restaurant,Restaurant,N/A,Other Dhaka,N/A,N/A,N/A,N/A,N/A,23.7981782,90.3386946,"https://www.google.com/maps?q=23.7981782,90.3386946"
Boomer's cafe,Restaurant,chinese;ice_cream;coffee,Other Dhaka,N/A,N/A,N/A,N/A,N/A,23.7416733,90.4100682,"https://www.google.com/maps?q=23.7416733,90.4100682"
Grassroot Cafe,Fast Food,chinese;tea;chicken;burger;asian;coffee_shop;local,Niketan,N/A,N/A,N/A,N/A,N/A,23.7710143,90.4125639,"https://www.google.com/maps?q=23.7710143,90.4125639"
Secret Recipe,Fast Food,cake;malaysian,Gulshan,N/A,N/A,N/A,N/A,N/A,23.7986561,90.4124831,"https://www.google.com/maps?q=23.7986561,90.4124831"
কস্তুরী,Restaurant,N/A,Gulshan,"Barun Tower, 15, Gulshan Circle -2",N/A,N/A,N/A,N/A,23.7946239,90.4135496,"https://www.google.com/maps?q=23.7946239,90.4135496"
Cafe 52,Restaurant,N/A,Gulshan,N/A,N/A,N/A,N/A,N/A,23.7945507,90.4127595,"https://www.google.com/maps?q=23.7945507,90.4127595"
Dhanshiri,Restaurant,N/A,Gulshan,N/A,N/A,N/A,N/A,N/A,23.7947496,90.4134561,"https://www.google.com/maps?q=23.7947496,90.4134561"
Cuppa Coffee Lounge,Restaurant,N/A,Gulshan,"Rahima Bhaban, 11, Gulshan-2 Circle",N/A,N/A,N/A,N/A,23.7943066,90.4141637,"https://www.google.com/maps?q=23.7943066,90.4141637"
Xinxian Restaurant,Restaurant,N/A,Dhanmondi,"7, Road 8",N/A,N/A,N/A,N/A,23.7456583,90.3843222,"https://www.google.com/maps?q=23.7456583,90.3843222"
Alkaderia Restaurant,Restaurant,regional;indian;chicken;asian;kebab,Rampura,"2/3, D. I. T. Road, Rampura",+8801721497089,N/A,Mo-Su 06:00-23:00,N/A,23.7592575,90.4183362,"https://www.google.com/maps?q=23.7592575,90.4183362"
keranigonj vuter bari,Restaurant,N/A,Old Dhaka,N/A,N/A,N/A,N/A,N/A,23.7058664,90.3916537,"https://www.google.com/maps?q=23.7058664,90.3916537"
কেএফসি খিলগাঁও,Restaurant,fried_chicken;chicken,Malibagh,N/A,N/A,N/A,N/A,N/A,23.752114,90.4169235,"https://www.google.com/maps?q=23.752114,90.4169235"
Grand Kabab,Restaurant,N/A,Old Dhaka,Abul Hasnat Road,N/A,N/A,N/A,N/A,23.7183985,90.4004287,"https://www.google.com/maps?q=23.7183985,90.4004287"
Grand Nawab,Restaurant,N/A,Old Dhaka,"13/1, Abul Hasnat Road",N/A,N/A,N/A,N/A,23.7183218,90.4003981,"https://www.google.com/maps?q=23.7183218,90.4003981"
Amigos' Pizza & Restaurant,Restaurant,N/A,Old Dhaka,"90, Abul Hasnat Rd",N/A,N/A,N/A,N/A,23.7183473,90.4004803,"https://www.google.com/maps?q=23.7183473,90.4004803"
Kolkata Kacchi Ghor,Restaurant,N/A,Old Dhaka,Abul Hasnat Road,N/A,N/A,N/A,N/A,23.718067,90.4006144,"https://www.google.com/maps?q=23.718067,90.4006144"
Haque Bakery,Restaurant,N/A,Old Dhaka,Abul Hasnat Road,N/A,N/A,N/A,N/A,23.7174288,90.4020403,"https://www.google.com/maps?q=23.7174288,90.4020403"
CP Five Star,Fast Food,N/A,Old Dhaka,Abul Hasnat Road,N/A,N/A,N/A,N/A,23.7174282,90.4021107,"https://www.google.com/maps?q=23.7174282,90.4021107"
Juice Box,Restaurant,N/A,Old Dhaka,Abul Hasnat Road,N/A,N/A,N/A,N/A,23.7175013,90.4016407,"https://www.google.com/maps?q=23.7175013,90.4016407"
Bagdad Biriyani,Restaurant,N/A,Old Dhaka,Abul Hasnat Road,N/A,N/A,N/A,N/A,23.7181005,90.4006969,"https://www.google.com/maps?q=23.7181005,90.4006969"
Sultan Kacchi,Restaurant,N/A,Old Dhaka,Abul Hasnat Road,N/A,N/A,N/A,N/A,23.7181573,90.4006483,"https://www.google.com/maps?q=23.7181573,90.4006483"
Cricketers’ Kitchen,Restaurant,N/A,Niketan,N/A,N/A,N/A,N/A,N/A,23.773482,90.4172051,"https://www.google.com/maps?q=23.773482,90.4172051"
Abacus Thai and Chinese Restaurant,Restaurant,N/A,Gulshan,N/A,N/A,N/A,N/A,N/A,23.7789216,90.4168486,"https://www.google.com/maps?q=23.7789216,90.4168486"
Cafe Bismillah Restaurant,Restaurant,N/A,Rampura,"La - 15/1, Merul Badda",N/A,N/A,N/A,N/A,23.7715258,90.4254031,"https://www.google.com/maps?q=23.7715258,90.4254031"
Beauty Hotel and Restaurant,Restaurant,N/A,Gulshan,"F-20/5, Progoti Sharani, Middle Badda",N/A,N/A,N/A,N/A,23.7776085,90.4255927,"https://www.google.com/maps?q=23.7776085,90.4255927"
Badda Darbar Restaurant,Restaurant,"Bangladeshi, Indiann",Gulshan,"La 62/2, Middle Badda",N/A,N/A,N/A,N/A,23.7775957,90.4259197,"https://www.google.com/maps?q=23.7775957,90.4259197"
Koyla Restaurant Ltd,Restaurant,kebab;regional,Niketan,N/A,N/A,N/A,N/A,N/A,23.7710312,90.4112448,"https://www.google.com/maps?q=23.7710312,90.4112448"
Pohelika Restaurant,Restaurant,N/A,Gulshan,"To - 143/1, গুলশান লিংক রোড",N/A,N/A,N/A,N/A,23.7806856,90.4215915,"https://www.google.com/maps?q=23.7806856,90.4215915"
Chap Station,Fast Food,N/A,Tejgaon,N/A,N/A,N/A,N/A,N/A,23.7707841,90.4058063,"https://www.google.com/maps?q=23.7707841,90.4058063"
Shahadat Biryani House,Restaurant,N/A,Gulshan,N/A,N/A,N/A,N/A,N/A,23.7772065,90.4318048,"https://www.google.com/maps?q=23.7772065,90.4318048"
Crispy restaurant,Restaurant,N/A,Other Dhaka,N/A,N/A,N/A,N/A,N/A,23.6829737,90.4228315,"https://www.google.com/maps?q=23.6829737,90.4228315"
Jakariya Biryani House & Restaurant,Restaurant,N/A,Other Dhaka,N/A,N/A,N/A,N/A,N/A,23.6831179,90.4200101,"https://www.google.com/maps?q=23.6831179,90.4200101"
দি ওয়ান রেস্টুরেন্ট,Restaurant,chinese;indian,Other Dhaka,ঢাকা-চট্টগ্রাম মহাসড়ক,N/A,N/A,N/A,N/A,23.6937718,90.4758058,"https://www.google.com/maps?q=23.6937718,90.4758058"
Cafe Prince,Cafe,N/A,Uttara West,N/A,N/A,N/A,N/A,N/A,23.874465,90.3678086,"https://www.google.com/maps?q=23.874465,90.3678086"
Jalkhabar Restaurant,Restaurant,N/A,Other Dhaka,N/A,N/A,N/A,N/A,N/A,23.7808461,90.399243,"https://www.google.com/maps?q=23.7808461,90.399243"
সিপি ফাইল স্টার,Fast Food,N/A,Kalabagan,N/A,N/A,N/A,N/A,N/A,23.7644463,90.3909978,"https://www.google.com/maps?q=23.7644463,90.3909978"
Kachalonka Restaurant And Kabab Garden,Restaurant,kebab,Dhanmondi,"House No.67, Kalabagan 1st Lane",+8801822-191741,N/A,N/A,N/A,23.747294,90.3807723,"https://www.google.com/maps?q=23.747294,90.3807723"
Haji Briyani,Restaurant,N/A,Dhanmondi,N/A,N/A,N/A,N/A,N/A,23.7474093,90.3806751,"https://www.google.com/maps?q=23.7474093,90.3806751"
AlFresco,Restaurant,N/A,Dhanmondi,N/A,N/A,N/A,N/A,N/A,23.7530269,90.3691849,"https://www.google.com/maps?q=23.7530269,90.3691849"
CFC (California Fried Chicken),Fast Food,fried_chicken;cakes;pastry,Dhanmondi,N/A,N/A,N/A,N/A,N/A,23.7473259,90.380339,"https://www.google.com/maps?q=23.7473259,90.380339"
Tasty Treat,Fast Food,cake;donut;sweets;coffee;burger;snacks,Dhanmondi,N/A,N/A,N/A,N/A,N/A,23.7472891,90.3803846,"https://www.google.com/maps?q=23.7472891,90.3803846"
প্রিন্স রেস্তোরা,Restaurant,regional;বাংলা_খাবার,Mughda,N/A,N/A,N/A,N/A,N/A,23.7444679,90.4268793,"https://www.google.com/maps?q=23.7444679,90.4268793"
চায়না পার্ক রেস্টুরেন্ট,Restaurant,chinese,Mughda,N/A,N/A,N/A,N/A,N/A,23.7433785,90.4268972,"https://www.google.com/maps?q=23.7433785,90.4268972"
Kheye De,Fast Food,N/A,Jatrabari,"121/1, Shahid Faruk Road",+880 1757 008460,N/A,N/A,N/A,23.7090776,90.4290272,"https://www.google.com/maps?q=23.7090776,90.4290272"
Secret Receipe - Khilgaon,Restaurant,asian;seafood;pastry,Malibagh,N/A,N/A,N/A,N/A,N/A,23.7521251,90.4169151,"https://www.google.com/maps?q=23.7521251,90.4169151"
Cafe Magic,Cafe,N/A,Dhanmondi,N/A,N/A,N/A,N/A,N/A,23.7642967,90.3895828,"https://www.google.com/maps?q=23.7642967,90.3895828"
Cafe Mango,Restaurant,coffee_shop;regional;pasta;breakfast;juice,Gulshan,"60/D, Road 131",+8801741087722,N/A,10:00-22:00,N/A,23.7817988,90.4177268,"https://www.google.com/maps?q=23.7817988,90.4177268"
Atrium Restaurant,Restaurant,thai;chinese;asian,Cantonment,"50-52,, Baridhara J Block",N/A,N/A,12:00-23:00,N/A,23.8024976,90.4228489,"https://www.google.com/maps?q=23.8024976,90.4228489"
ইসলামি ব্যাংক হাসপাতাল কেন্টিন,Restaurant,N/A,Mughda,N/A,N/A,N/A,N/A,N/A,23.7380057,90.4222851,"https://www.google.com/maps?q=23.7380057,90.4222851"
Ajo Idea Space,Restaurant,N/A,Uttara,"House 14/A, Road 2 Sector 13",+88 01613-161616,https://m.facebook.com/AjoIdeaSpace/,11:00-23:00,N/A,23.8704336,90.3921608,"https://www.google.com/maps?q=23.8704336,90.3921608"
Panshi Restaurant,Restaurant,N/A,Gulshan,"GA - 72/1, Bir Uttam Rafiqul Islam Ave;Bir Uttam Rafiqul Islam Avenue",N/A,N/A,N/A,N/A,23.7801704,90.4255003,"https://www.google.com/maps?q=23.7801704,90.4255003"
Sugerpuffs and Butchers,Restaurant,burger,Gulshan,N/A,N/A,N/A,N/A,N/A,23.7803429,90.4254764,"https://www.google.com/maps?q=23.7803429,90.4254764"
هرفي,Fast Food,burger,Niketan,N/A,N/A,N/A,N/A,N/A,23.7743326,90.4160651,"https://www.google.com/maps?q=23.7743326,90.4160651"
Cha Sowdagar,Cafe,N/A,Mirpur DOHS,N/A,N/A,https://www.facebook.com/cha.sowdagar/,N/A,N/A,23.8228235,90.3934015,"https://www.google.com/maps?q=23.8228235,90.3934015"
ঘরের ছোঁয়া রেস্টুরেন্ট এন্ড পার্টি সেন্টার,Restaurant,N/A,Mirpur,N/A,N/A,N/A,"PH,Mo-Su 10:00-23:00",N/A,23.8064927,90.3684933,"https://www.google.com/maps?q=23.8064927,90.3684933"
হ্যাপী টার্টল ইটারী,Restaurant,japanese;korean;asian,Mohammadpur,"১৯সি/১-এ, ব্লক - এফ, রিং রোড",+8801308-658994,N/A,১১:৩০-২৩:০০,N/A,23.7699003,90.3590818,"https://www.google.com/maps?q=23.7699003,90.3590818"
Hotel Dilruba,Restaurant,N/A,Lalbagh,N/A,N/A,N/A,N/A,N/A,23.7236501,90.3794246,"https://www.google.com/maps?q=23.7236501,90.3794246"
Matlob Hotel,Restaurant,N/A,Lalbagh,N/A,N/A,N/A,N/A,N/A,23.7238856,90.3798358,"https://www.google.com/maps?q=23.7238856,90.3798358"
রাসেল হোটেল এন্ড রেস্টুরেন্ট,Restaurant,N/A,Bashabo,N/A,N/A,N/A,N/A,N/A,23.7402506,90.433462,"https://www.google.com/maps?q=23.7402506,90.433462"
সিপি ফ্রাইড চিকেন,Fast Food,chicken,Bashabo,N/A,N/A,N/A,N/A,N/A,23.7403579,90.433595,"https://www.google.com/maps?q=23.7403579,90.433595"
Dhaka Hotel and Restaurant,Restaurant,asian;kebab;chicken,Malibagh,N/A,N/A,N/A,N/A,N/A,23.7461107,90.4280113,"https://www.google.com/maps?q=23.7461107,90.4280113"
নিউ মোঘল দরবার রেস্তোরা,Restaurant,N/A,Dholaikhal,N/A,N/A,N/A,N/A,N/A,23.7301991,90.4080401,"https://www.google.com/maps?q=23.7301991,90.4080401"
ধানসিঁড়ি রেস্তোরা,Restaurant,N/A,Other Dhaka,N/A,N/A,N/A,N/A,N/A,23.7301789,90.4079994,"https://www.google.com/maps?q=23.7301789,90.4079994"
বস সুইটস,Fast Food,N/A,Dholaikhal,"21, তোপখানা রোড",N/A,N/A,N/A,N/A,23.7301609,90.4080818,"https://www.google.com/maps?q=23.7301609,90.4080818"
Crown Cafe and Restaurant,Restaurant,regional,Other Dhaka,N/A,N/A,N/A,N/A,N/A,23.853897,90.4034667,"https://www.google.com/maps?q=23.853897,90.4034667"
আর রাজ্জাক কাবাব ঘর,Fast Food,N/A,Bashabo,N/A,N/A,N/A,N/A,N/A,23.7428345,90.4393332,"https://www.google.com/maps?q=23.7428345,90.4393332"
চিশতিয়া ফুড কর্ণার,Fast Food,N/A,Bashabo,N/A,N/A,N/A,N/A,N/A,23.7436509,90.4404333,"https://www.google.com/maps?q=23.7436509,90.4404333"
চন্দ্রপুরি হোটেল,Restaurant,N/A,Motijheel,N/A,N/A,N/A,N/A,N/A,23.7360889,90.4232122,"https://www.google.com/maps?q=23.7360889,90.4232122"
Takeout Tejgaon,Restaurant,burger,Tejgaon,"222, Mir Shawkat Ali Sarak",N/A,N/A,N/A,N/A,23.7709982,90.40592,"https://www.google.com/maps?q=23.7709982,90.40592"
Suzuki Cafe,Restaurant,N/A,Tejgaon,"275, Tejgaon I/A,",N/A,N/A,N/A,N/A,23.7679765,90.4054533,"https://www.google.com/maps?q=23.7679765,90.4054533"
Station 121,Restaurant,chinese;american,Gulshan,"House 121-B, Gulshan Avenue",+8801952200550,https://facebook.com/station121dhaka,Mo-Su 17:00-23:00,N/A,23.7923051,90.4150726,"https://www.google.com/maps?q=23.7923051,90.4150726"
Prince Restora,Restaurant,N/A,Dhanmondi,N/A,N/A,N/A,N/A,N/A,23.7581907,90.3891652,"https://www.google.com/maps?q=23.7581907,90.3891652"
Khabar Dabar Restaurent,Restaurant,N/A,Tejgaon,"55/1, New Airport Road, Mohakhali",N/A,N/A,N/A,N/A,23.779099,90.39888,"https://www.google.com/maps?q=23.779099,90.39888"
Shah Jalal Restora,Restaurant,N/A,Banani,N/A,N/A,N/A,N/A,N/A,23.7941889,90.4006761,"https://www.google.com/maps?q=23.7941889,90.4006761"
Grand Prince Thai & Chinese Restaurant,Restaurant,N/A,Mohammadpur,"30, Ring Road",+880 17 35017055,https://grandprince-restaurant.com/,N/A,N/A,23.773875,90.3620574,"https://www.google.com/maps?q=23.773875,90.3620574"
Prince Kitchen,Fast Food,N/A,Mohammadpur,"30, Ring Road",+880 17 17122364,N/A,N/A,N/A,23.773925,90.3620805,"https://www.google.com/maps?q=23.773925,90.3620805"
The Amber Room,Restaurant,steak_house,Shahbagh,N/A,N/A,N/A,N/A,N/A,23.7411409,90.3969484,"https://www.google.com/maps?q=23.7411409,90.3969484"
Element,Restaurant,N/A,Shahbagh,N/A,N/A,N/A,N/A,N/A,23.7411223,90.3965949,"https://www.google.com/maps?q=23.7411223,90.3965949"
Aqua Deck,Restaurant,N/A,Shahbagh,N/A,N/A,N/A,N/A,N/A,23.7409721,90.3971906,"https://www.google.com/maps?q=23.7409721,90.3971906"
চারুকলা ক্যানটিন,Fast Food,N/A,Elephant Road,N/A,N/A,N/A,Su-Th 07:00-16:00,N/A,23.7353049,90.3938992,"https://www.google.com/maps?q=23.7353049,90.3938992"
Burger Zone,Fast Food,burger;coffee_shop;sandwich,Other Dhaka,Hazi Badsha Miah Road,N/A,N/A,N/A,N/A,23.6950557,90.4758243,"https://www.google.com/maps?q=23.6950557,90.4758243"
Allar Dan Restaurant,Restaurant,regional,Other Dhaka,Hazi Badsha Miah Road,N/A,N/A,Mo-Su 07:00-21:00,N/A,23.6953967,90.475684,"https://www.google.com/maps?q=23.6953967,90.475684"
27 Number,Restaurant,N/A,Dhanmondi,N/A,N/A,N/A,N/A,N/A,23.7546269,90.3729269,"https://www.google.com/maps?q=23.7546269,90.3729269"
Tokyo Express,Restaurant,N/A,Dhanmondi,N/A,N/A,N/A,N/A,N/A,23.7544733,90.3729501,"https://www.google.com/maps?q=23.7544733,90.3729501"
Hira Frid Chicken & Biriyani House,Restaurant,N/A,Dhanmondi,N/A,N/A,N/A,N/A,N/A,23.7526688,90.3848679,"https://www.google.com/maps?q=23.7526688,90.3848679"
Mahi Fast Food and Restaurant,Restaurant,N/A,Mohammadpur,"91/Ka, Road No 4",N/A,N/A,N/A,N/A,23.7731094,90.3650256,"https://www.google.com/maps?q=23.7731094,90.3650256"
Cafe Vista,Cafe,N/A,Pallabi,N/A,N/A,N/A,N/A,N/A,23.8399323,90.3574248,"https://www.google.com/maps?q=23.8399323,90.3574248"
The Food Hall,Food Court,N/A,Kalabagan,N/A,N/A,N/A,N/A,N/A,23.7515015,90.390313,"https://www.google.com/maps?q=23.7515015,90.390313"
Al Muslim Hotel & Restaurant,Restaurant,N/A,Old Dhaka,N/A,N/A,N/A,N/A,N/A,23.7188342,90.4057541,"https://www.google.com/maps?q=23.7188342,90.4057541"
Pitha House,Restaurant,regional,Mohammadpur,N/A,N/A,N/A,N/A,N/A,23.767143,90.3587021,"https://www.google.com/maps?q=23.767143,90.3587021"
Minu Din Chap,Restaurant,N/A,Mirpur,"1, Line 10",N/A,N/A,"PH,Mo-Su 08:00-10:00",N/A,23.8118285,90.3697939,"https://www.google.com/maps?q=23.8118285,90.3697939"
Hazi Nanna Biriyani-হাজী নান্না বিরিয়ানি,Restaurant,regional,Mirpur,এভিনিউ ১,N/A,N/A,"PH,Mo-Su 10:00-22:00",N/A,23.8100391,90.3704692,"https://www.google.com/maps?q=23.8100391,90.3704692"
Hazi Nanna Biriyani,Restaurant,N/A,Mirpur,এভিনিউ ১,N/A,N/A,"Mo-Su,PH 08:00-10:00",N/A,23.8098766,90.370571,"https://www.google.com/maps?q=23.8098766,90.370571"
Steak Republic,Restaurant,steak_house;american_continental,Gulshan,"house no 24, road 36",+8801715077307,https://steakrepublic.com.bd/,11 am 11 pm,N/A,23.7878702,90.4152659,"https://www.google.com/maps?q=23.7878702,90.4152659"
Sausly's,Fast Food,international,Gulshan,N/A,N/A,N/A,N/A,N/A,23.7944854,90.4146507,"https://www.google.com/maps?q=23.7944854,90.4146507"
Seven 24 Restaurant,Restaurant,N/A,Gulshan,N/A,N/A,N/A,N/A,N/A,23.7866462,90.4164958,"https://www.google.com/maps?q=23.7866462,90.4164958"
The Artichoke Restaurant,Restaurant,N/A,Rampura,N/A,N/A,N/A,N/A,N/A,23.7729683,90.4254736,"https://www.google.com/maps?q=23.7729683,90.4254736"
Asian Kitchen,Restaurant,N/A,Rampura,N/A,N/A,N/A,N/A,N/A,23.7731835,90.4255436,"https://www.google.com/maps?q=23.7731835,90.4255436"
Sultan's Dine,Restaurant,N/A,Gulshan,"2nd Floor, Shamsudding Mansion, Road 46",N/A,N/A,N/A,N/A,23.794759,90.4132819,"https://www.google.com/maps?q=23.794759,90.4132819"
The Great Kabab Factory,Restaurant,N/A,Gulshan,"5th Floor, Shamsudding Mansion, Road 46",N/A,N/A,N/A,N/A,23.7947492,90.4132604,"https://www.google.com/maps?q=23.7947492,90.4132604"
Baoxi Kafei,Restaurant,N/A,Gulshan,"Barun Tower, 15, Gulshan Circle -2",N/A,N/A,N/A,N/A,23.7946812,90.4137302,"https://www.google.com/maps?q=23.7946812,90.4137302"
Bangla,Restaurant,N/A,Gulshan,"Ga-96, Bir Uttam Rafiqul Islam Avenue",N/A,N/A,N/A,N/A,23.7807893,90.4255455,"https://www.google.com/maps?q=23.7807893,90.4255455"
Modhu Milon Restaurant and Party Center,Restaurant,N/A,Gulshan,"Cha-87/6, Progoti Sarani",N/A,N/A,N/A,N/A,23.7869873,90.4256375,"https://www.google.com/maps?q=23.7869873,90.4256375"
Campfire,Restaurant,coffee_shop;chinese;kebab;asian;thai,Uttara,"74, Gausul Azam Avenue, Everest Tower.","+8801712844088, +8801707116070, +8801707116080",www.campfiredhaka.com,Mo-Su 11:00-23:00,N/A,23.8694639,90.3856385,"https://www.google.com/maps?q=23.8694639,90.3856385"
Dawat Restaurant,Restaurant,N/A,Gulshan,N/A,N/A,N/A,N/A,N/A,23.7860218,90.4257504,"https://www.google.com/maps?q=23.7860218,90.4257504"
CP Five Star Chicken,Food Court,N/A,Gulshan,N/A,N/A,N/A,N/A,N/A,23.7835106,90.4259843,"https://www.google.com/maps?q=23.7835106,90.4259843"
Jannat Hotel and Restaurant,Restaurant,N/A,Gulshan,"Cha-73, Progoti Sharani",N/A,N/A,N/A,N/A,23.7835821,90.4257355,"https://www.google.com/maps?q=23.7835821,90.4257355"
Coffee and Burger Shop,Fast Food,N/A,Gulshan,N/A,N/A,N/A,N/A,N/A,23.7916034,90.4224871,"https://www.google.com/maps?q=23.7916034,90.4224871"
Khandani Khanapina,Food Court,N/A,Gulshan,N/A,N/A,N/A,N/A,N/A,23.7917018,90.4224686,"https://www.google.com/maps?q=23.7917018,90.4224686"
Lasani Restaurant,Restaurant,N/A,Gulshan,N/A,N/A,N/A,N/A,N/A,23.7918169,90.4224389,"https://www.google.com/maps?q=23.7918169,90.4224389"
The White Canary Cafe,Cafe,N/A,Gulshan,N/A,N/A,N/A,N/A,N/A,23.7958555,90.4170453,"https://www.google.com/maps?q=23.7958555,90.4170453"
Mojaddedi Hotel and Restaurant,Restaurant,N/A,Rampura,N/A,N/A,N/A,N/A,N/A,23.7731991,90.4258575,"https://www.google.com/maps?q=23.7731991,90.4258575"
The Look In Restaurant,Restaurant,N/A,Rampura,N/A,N/A,N/A,N/A,N/A,23.7730448,90.4258999,"https://www.google.com/maps?q=23.7730448,90.4258999"
Mokka Restaurant,Restaurant,N/A,Other Dhaka,"Ashkona, Hazi Camp",N/A,N/A,N/A,N/A,23.8512987,90.4124783,"https://www.google.com/maps?q=23.8512987,90.4124783"
Nanna Biryani,Restaurant,N/A,Other Dhaka,"Dakshinkhan Road, 1 No Hazi Camp",+8801631659432,N/A,N/A,N/A,23.8515846,90.4123881,"https://www.google.com/maps?q=23.8515846,90.4123881"
